{
  "type": "FeatureCollection",
  "features": [
    {
      "type": "Feature",
      "properties": {
        "﻿番号": "GA001",
        "title": "三井寺観音道【道標】",
        "住所": "滋賀県大津市横木一丁目",
        "": ""
      },
      "geometry": {
        "type": "Point",
        "coordinates": [
          135.49453,
          34.59291
        ]
      }
    },
    {
      "type": "Feature",
      "properties": {
        "﻿番号": "GA002",
        "title": "牛尾山【道標】",
        "住所": "滋賀県大津市横木一丁目",
        "": ""
      },
      "geometry": {
        "type": "Point",
        "coordinates": [
          135.49583,
          34.5928
        ]
      }
    },
    {
      "type": "Feature",
      "properties": {
        "﻿番号": "GA003",
        "title": "東海道／逢坂関【道標】",
        "住所": "滋賀県大津市横木一丁目(閑栖寺前)",
        "": ""
      },
      "geometry": {
        "type": "Point",
        "coordinates": [
          135.50075,
          34.59282
        ]
      }
    },
    {
      "type": "Feature",
      "properties": {
        "﻿番号": "GA004",
        "title": "柳緑花紅【道標】",
        "住所": "滋賀県大津市追分町",
        "": ""
      },
      "geometry": {
        "type": "Point",
        "coordinates": [
          135.50107,
          34.59275
        ]
      }
    },
    {
      "type": "Feature",
      "properties": {
        "﻿番号": "GA005",
        "title": "蓮如上人／是より十町【道標】",
        "住所": "滋賀県大津市追分町",
        "": ""
      },
      "geometry": {
        "type": "Point",
        "coordinates": [
          135.50107,
          34.59275
        ]
      }
    },
    {
      "type": "Feature",
      "properties": {
        "﻿番号": "GA006",
        "title": "旧藤尾小学校跡地",
        "住所": "滋賀県大津市横木一丁目",
        "": ""
      },
      "geometry": {
        "type": "Point",
        "coordinates": [
          135.50027,
          34.59283
        ]
      }
    },
    {
      "type": "Feature",
      "properties": {
        "﻿番号": "GA007",
        "title": "山崎院跡",
        "住所": "京都府乙訓郡大山崎町大山崎上ノ田",
        "": ""
      },
      "geometry": {
        "type": "Point",
        "coordinates": [
          135.40555,
          34.53376
        ]
      }
    },
    {
      "type": "Feature",
      "properties": {
        "﻿番号": "GA008",
        "title": "西川耕蔵招魂碑",
        "住所": "滋賀県大津市園城寺町(三井寺内)",
        "": ""
      },
      "geometry": {
        "type": "Point",
        "coordinates": [
          135.51166,
          35.0035
        ]
      }
    },
    {
      "type": "Feature",
      "properties": {
        "﻿番号": "GA009",
        "title": "甲子烈士無名氏墓",
        "住所": "京都府乙訓郡大山崎町大山崎白味才(安養院内)",
        "": ""
      },
      "geometry": {
        "type": "Point",
        "coordinates": [
          135.41032,
          34.5354
        ]
      }
    },
    {
      "type": "Feature",
      "properties": {
        "﻿番号": "GA010",
        "title": "是より東　山城国【道標】",
        "住所": "京都府乙訓郡大山崎町大山崎西谷",
        "": ""
      },
      "geometry": {
        "type": "Point",
        "coordinates": [
          135.4044,
          34.53293
        ]
      }
    },
    {
      "type": "Feature",
      "properties": {
        "﻿番号": "GA011",
        "title": "寺戸大塚古墳",
        "住所": "京都府向日市寺戸町芝山",
        "": ""
      },
      "geometry": {
        "type": "Point",
        "coordinates": [
          135.412,
          34.5721
        ]
      }
    },
    {
      "type": "Feature",
      "properties": {
        "﻿番号": "GA012",
        "title": "長岡宮大極殿遺址",
        "住所": "京都府向日市鶏冠井町大極殿(大極殿公園内)",
        "": ""
      },
      "geometry": {
        "type": "Point",
        "coordinates": [
          135.42122,
          34.56353
        ]
      }
    },
    {
      "type": "Feature",
      "properties": {
        "﻿番号": "GA013",
        "title": "淀川渡船所",
        "住所": "京都府久世郡久御山町西一口",
        "": ""
      },
      "geometry": {
        "type": "Point",
        "coordinates": [
          135.4356,
          34.541
        ]
      }
    },
    {
      "type": "Feature",
      "properties": {
        "﻿番号": "GA014",
        "title": "安養寺",
        "住所": "京都府久世郡久御山町東一口",
        "": ""
      },
      "geometry": {
        "type": "Point",
        "coordinates": [
          135.44237,
          34.54136
        ]
      }
    },
    {
      "type": "Feature",
      "properties": {
        "﻿番号": "GA015",
        "title": "巨椋池干拓碑",
        "住所": "京都府宇治市槇島町一ノ坪(巨椋池土地改良区事務所内)",
        "": ""
      },
      "geometry": {
        "type": "Point",
        "coordinates": [
          135.47019,
          34.54157
        ]
      }
    },
    {
      "type": "Feature",
      "properties": {
        "﻿番号": "GA016",
        "title": "柳緑花紅【道標】",
        "住所": "滋賀県近江八幡市安土町下豊浦(滋賀県立安土城考古博物館内)",
        "": ""
      },
      "geometry": {
        "type": "Point",
        "coordinates": [
          136.0851,
          35.08572
        ]
      }
    },
    {
      "type": "Feature",
      "properties": {
        "﻿番号": "GA017",
        "title": "柳緑花紅【道標】",
        "住所": "滋賀県大津市追分町(摂取院内)",
        "": ""
      },
      "geometry": {
        "type": "Point",
        "coordinates": [
          135.50255,
          34.59269
        ]
      }
    },
    {
      "type": "Feature",
      "properties": {
        "﻿番号": "GA018",
        "title": "粟生・善峰・柳谷方面／京都・嵐山方面",
        "住所": "京都府向日市向日町南山",
        "": ""
      },
      "geometry": {
        "type": "Point",
        "coordinates": [
          135.42004,
          34.56344
        ]
      }
    },
    {
      "type": "Feature",
      "properties": {
        "﻿番号": "GA019",
        "title": "向日町道路元標",
        "住所": "京都府向日市寺戸町中之段",
        "": ""
      },
      "geometry": {
        "type": "Point",
        "coordinates": [
          135.42029,
          34.56438
        ]
      }
    },
    {
      "type": "Feature",
      "properties": {
        "﻿番号": "GA020",
        "title": "大原野神社右一里【道標】",
        "住所": "京都府向日市寺戸町梅ノ木",
        "": ""
      },
      "geometry": {
        "type": "Point",
        "coordinates": [
          135.42153,
          34.57059
        ]
      }
    },
    {
      "type": "Feature",
      "properties": {
        "﻿番号": "GA021",
        "title": "淳和天皇御陵・桓武天皇皇后御陵【道標】",
        "住所": "京都府向日市寺戸町梅ノ木",
        "": ""
      },
      "geometry": {
        "type": "Point",
        "coordinates": [
          135.42153,
          34.57059
        ]
      }
    },
    {
      "type": "Feature",
      "properties": {
        "﻿番号": "GA022",
        "title": "宝菩提院観世音西三町【道標】",
        "住所": "京都府向日市寺戸町梅ノ木",
        "": ""
      },
      "geometry": {
        "type": "Point",
        "coordinates": [
          135.42153,
          34.57059
        ]
      }
    },
    {
      "type": "Feature",
      "properties": {
        "﻿番号": "GA023",
        "title": "灰方地蔵・岩蔵観世音道【道標】",
        "住所": "京都府向日市寺戸町梅ノ木",
        "": ""
      },
      "geometry": {
        "type": "Point",
        "coordinates": [
          135.42153,
          34.57059
        ]
      }
    },
    {
      "type": "Feature",
      "properties": {
        "﻿番号": "GA024",
        "title": "桓武天皇皇后御陵【道標】",
        "住所": "京都府向日市寺戸町古城",
        "": ""
      },
      "geometry": {
        "type": "Point",
        "coordinates": [
          135.41427,
          34.57068
        ]
      }
    },
    {
      "type": "Feature",
      "properties": {
        "﻿番号": "GA025",
        "title": "土御門天皇御陵【道標】",
        "住所": "京都府長岡京市梅が丘一丁目",
        "": ""
      },
      "geometry": {
        "type": "Point",
        "coordinates": [
          135.4119,
          34.55095
        ]
      }
    },
    {
      "type": "Feature",
      "properties": {
        "﻿番号": "GA026",
        "title": "参陵道【道標】",
        "住所": "京都府長岡京市金ヶ原芝",
        "": ""
      },
      "geometry": {
        "type": "Point",
        "coordinates": [
          135.40277,
          34.55055
        ]
      }
    },
    {
      "type": "Feature",
      "properties": {
        "﻿番号": "GA027",
        "title": "御陵道改修奉仕記念碑",
        "住所": "京都府長岡京市金ヶ原芝",
        "": ""
      },
      "geometry": {
        "type": "Point",
        "coordinates": [
          135.40277,
          34.55055
        ]
      }
    },
    {
      "type": "Feature",
      "properties": {
        "﻿番号": "GA028",
        "title": "土御門天皇御陵【道標】",
        "住所": "京都府長岡京市金ヶ原金原寺",
        "": ""
      },
      "geometry": {
        "type": "Point",
        "coordinates": [
          135.40202,
          34.55044
        ]
      }
    },
    {
      "type": "Feature",
      "properties": {
        "﻿番号": "GA029",
        "title": "弘文天皇御陵参拝道【道標】",
        "住所": "滋賀県大津市御陵町",
        "": ""
      },
      "geometry": {
        "type": "Point",
        "coordinates": [
          135.51178,
          35.01115
        ]
      }
    },
    {
      "type": "Feature",
      "properties": {
        "﻿番号": "GA030",
        "title": "莵道稚郎子皇子御墓【道標】",
        "住所": "京都府宇治市宇治東内",
        "": ""
      },
      "geometry": {
        "type": "Point",
        "coordinates": [
          135.48263,
          34.53379
        ]
      }
    },
    {
      "type": "Feature",
      "properties": {
        "﻿番号": "GA031",
        "title": "宇治村道路元標",
        "住所": "京都府宇治市五ヶ庄西浦",
        "": ""
      },
      "geometry": {
        "type": "Point",
        "coordinates": [
          135.48037,
          34.54558
        ]
      }
    },
    {
      "type": "Feature",
      "properties": {
        "﻿番号": "GA032",
        "title": "残念さん山本文之助墓",
        "住所": "兵庫県尼崎市杭瀬南新町四丁目(杭瀬東墓地内)",
        "": ""
      },
      "geometry": {
        "type": "Point",
        "coordinates": [
          135.25448,
          34.43063
        ]
      }
    },
    {
      "type": "Feature",
      "properties": {
        "﻿番号": "GA033",
        "title": "聖武天皇・元明天皇・元正天皇陵【道標】",
        "住所": "奈良県奈良市中筋町",
        "": ""
      },
      "geometry": {
        "type": "Point",
        "coordinates": [
          135.49393,
          34.41041
        ]
      }
    },
    {
      "type": "Feature",
      "properties": {
        "﻿番号": "GA034",
        "title": "元明天皇・元正天皇陵【道標】",
        "住所": "奈良県奈良市法蓮町",
        "": ""
      },
      "geometry": {
        "type": "Point",
        "coordinates": [
          135.49429,
          34.41299
        ]
      }
    },
    {
      "type": "Feature",
      "properties": {
        "﻿番号": "GA035",
        "title": "孝元天皇御陵【道標】",
        "住所": "奈良県橿原市石川町",
        "": ""
      },
      "geometry": {
        "type": "Point",
        "coordinates": [
          135.47461,
          34.28589
        ]
      }
    },
    {
      "type": "Feature",
      "properties": {
        "﻿番号": "GA036",
        "title": "天武天皇・持統天皇・欽明天皇・孝元天皇御陵【道標】",
        "住所": "奈良県橿原市貝瀬町(近鉄岡寺駅前)",
        "": ""
      },
      "geometry": {
        "type": "Point",
        "coordinates": [
          135.47464,
          34.28279
        ]
      }
    },
    {
      "type": "Feature",
      "properties": {
        "﻿番号": "GA037",
        "title": "垂仁天皇・安康天皇陵【道標】",
        "住所": "奈良県奈良市尼辻西町",
        "": ""
      },
      "geometry": {
        "type": "Point",
        "coordinates": [
          135.46552,
          34.4054
        ]
      }
    },
    {
      "type": "Feature",
      "properties": {
        "﻿番号": "GA038",
        "title": "聖武天皇皇太子那富山墓【道標】",
        "住所": "奈良県奈良市法蓮佐保山三丁目",
        "": ""
      },
      "geometry": {
        "type": "Point",
        "coordinates": [
          135.49406,
          34.42007
        ]
      }
    },
    {
      "type": "Feature",
      "properties": {
        "﻿番号": "GA039",
        "title": "応神天皇皇后仲姫命御陵参拝道【道標】",
        "住所": "大阪府藤井寺市道明寺六丁目",
        "": ""
      },
      "geometry": {
        "type": "Point",
        "coordinates": [
          135.36462,
          34.33583
        ]
      }
    },
    {
      "type": "Feature",
      "properties": {
        "﻿番号": "GA040",
        "title": "允恭天皇御陵参拝道【道標】",
        "住所": "大阪府藤井寺市市林五丁目",
        "": ""
      },
      "geometry": {
        "type": "Point",
        "coordinates": [
          135.36536,
          34.34229
        ]
      }
    },
    {
      "type": "Feature",
      "properties": {
        "﻿番号": "GA041",
        "title": "崇神天皇・景行天皇・継体天皇皇后衾田陵【道標】",
        "住所": "奈良県天理市柳本町(JR柳本駅前)",
        "": ""
      },
      "geometry": {
        "type": "Point",
        "coordinates": [
          135.50197,
          34.33341
        ]
      }
    },
    {
      "type": "Feature",
      "properties": {
        "﻿番号": "GA042",
        "title": "崇神天皇・景行天皇陵他【道標】",
        "住所": "奈良県天理市柳本町",
        "": ""
      },
      "geometry": {
        "type": "Point",
        "coordinates": [
          135.50433,
          34.33324
        ]
      }
    },
    {
      "type": "Feature",
      "properties": {
        "﻿番号": "GA043",
        "title": "仁徳天皇皇后磐之媛命陵【道標】",
        "住所": "奈良県奈良市法華寺町",
        "": ""
      },
      "geometry": {
        "type": "Point",
        "coordinates": [
          135.48236,
          34.41297
        ]
      }
    },
    {
      "type": "Feature",
      "properties": {
        "﻿番号": "GA044",
        "title": "仲哀天皇御陵参拝道【道標】",
        "住所": "大阪府藤井寺市藤井寺二丁目",
        "": ""
      },
      "geometry": {
        "type": "Point",
        "coordinates": [
          135.3545,
          34.34093
        ]
      }
    },
    {
      "type": "Feature",
      "properties": {
        "﻿番号": "GA045",
        "title": "仁賢天皇・清寧天皇・日本武尊御陵参拝道【道標】",
        "住所": "大阪府羽曳野市白鳥一丁目",
        "": ""
      },
      "geometry": {
        "type": "Point",
        "coordinates": [
          135.36255,
          34.33086
        ]
      }
    },
    {
      "type": "Feature",
      "properties": {
        "﻿番号": "GA046",
        "title": "反正天皇・履中天皇・仁徳天皇御陵道【道標】",
        "住所": "大阪府堺市堺区三国ヶ丘御幸通【道標】",
        "": ""
      },
      "geometry": {
        "type": "Point",
        "coordinates": [
          135.2902,
          34.34262
        ]
      }
    },
    {
      "type": "Feature",
      "properties": {
        "﻿番号": "GA047",
        "title": "顕宗天皇陵・武烈天皇陵【道標】",
        "住所": "奈良県香芝市下田西一丁目",
        "": ""
      },
      "geometry": {
        "type": "Point",
        "coordinates": [
          135.422,
          34.32345
        ]
      }
    },
    {
      "type": "Feature",
      "properties": {
        "﻿番号": "GA048",
        "title": "孝霊天皇御陵・武烈天皇御陵【道標】",
        "住所": "奈良県北葛城郡王寺町本町二丁目",
        "": ""
      },
      "geometry": {
        "type": "Point",
        "coordinates": [
          135.42207,
          34.35143
        ]
      }
    },
    {
      "type": "Feature",
      "properties": {
        "﻿番号": "GA049",
        "title": "成務天皇陵・称徳天皇陵・神功皇后陵・狭木之寺間陵【道標】",
        "住所": "奈良県奈良市二条町(西大寺橋東詰)",
        "": ""
      },
      "geometry": {
        "type": "Point",
        "coordinates": [
          135.47098,
          34.41392
        ]
      }
    },
    {
      "type": "Feature",
      "properties": {
        "﻿番号": "GA050",
        "title": "八幡町道路元標",
        "住所": "京都府八幡市八幡山柴",
        "": ""
      },
      "geometry": {
        "type": "Point",
        "coordinates": [
          135.42134,
          34.52528
        ]
      }
    },
    {
      "type": "Feature",
      "properties": {
        "﻿番号": "GA051",
        "title": "宇治町道路元標",
        "住所": "京都府宇治市宇治妙楽",
        "": ""
      },
      "geometry": {
        "type": "Point",
        "coordinates": [
          135.482,
          34.53319
        ]
      }
    },
    {
      "type": "Feature",
      "properties": {
        "﻿番号": "GA052",
        "title": "新神足村道路元標",
        "住所": "京都府長岡京市開田二丁目",
        "": ""
      },
      "geometry": {
        "type": "Point",
        "coordinates": [
          135.41558,
          34.55343
        ]
      }
    },
    {
      "type": "Feature",
      "properties": {
        "﻿番号": "GA053",
        "title": "元明天皇・元正天皇御陵【道標】",
        "住所": "奈良県奈良市奈良阪町",
        "": ""
      },
      "geometry": {
        "type": "Point",
        "coordinates": [
          135.49573,
          34.42235
        ]
      }
    },
    {
      "type": "Feature",
      "properties": {
        "﻿番号": "GA054",
        "title": "槇島村道路元標",
        "住所": "京都府宇治市槇島町門口",
        "": ""
      },
      "geometry": {
        "type": "Point",
        "coordinates": [
          135.47578,
          34.54026
        ]
      }
    },
    {
      "type": "Feature",
      "properties": {
        "﻿番号": "GA055",
        "title": "大津市道路元標",
        "住所": "滋賀県大津市京町一丁目",
        "": ""
      },
      "geometry": {
        "type": "Point",
        "coordinates": [
          135.5143,
          35.00285
        ]
      }
    },
    {
      "type": "Feature",
      "properties": {
        "﻿番号": "GA056",
        "title": "戊辰役東軍戦死者埋骨地",
        "住所": "京都府八幡市八幡苗田(番賀共同墓地内)",
        "": ""
      },
      "geometry": {
        "type": "Point",
        "coordinates": [
          135.42413,
          34.52272
        ]
      }
    },
    {
      "type": "Feature",
      "properties": {
        "﻿番号": "GA057",
        "title": "戊辰史蹟念仏寺",
        "住所": "京都府八幡市八幡山路(念仏寺内)",
        "": ""
      },
      "geometry": {
        "type": "Point",
        "coordinates": [
          135.42202,
          34.52524
        ]
      }
    },
    {
      "type": "Feature",
      "properties": {
        "﻿番号": "GA058",
        "title": "崇道天皇八嶋陵・円照寺宮墓【道標】",
        "住所": "奈良県奈良市山町",
        "": ""
      },
      "geometry": {
        "type": "Point",
        "coordinates": [
          135.50173,
          34.38338
        ]
      }
    },
    {
      "type": "Feature",
      "properties": {
        "﻿番号": "HI001",
        "title": "粟田焼発祥地",
        "住所": "東山区三条通神宮道通東入南側(粟田神社参道)",
        "": ""
      },
      "geometry": {
        "type": "Point",
        "coordinates": [
          135.47013,
          35.00339
        ]
      }
    },
    {
      "type": "Feature",
      "properties": {
        "﻿番号": "HI002",
        "title": "和気亀亭宅跡",
        "住所": "東山区五条通東大路西入北側",
        "": ""
      },
      "geometry": {
        "type": "Point",
        "coordinates": [
          135.4631,
          34.59401
        ]
      }
    },
    {
      "type": "Feature",
      "properties": {
        "﻿番号": "HI003",
        "title": "仁阿弥高橋道八宅",
        "住所": "東山区五条通東大路西入南側",
        "": ""
      },
      "geometry": {
        "type": "Point",
        "coordinates": [
          135.4631,
          34.59402
        ]
      }
    },
    {
      "type": "Feature",
      "properties": {
        "﻿番号": "HI004",
        "title": "清水焼発祥地五条坂",
        "住所": "東山区五条通東大路西入北側(若宮八幡宮前)",
        "": ""
      },
      "geometry": {
        "type": "Point",
        "coordinates": [
          135.46287,
          34.59407
        ]
      }
    },
    {
      "type": "Feature",
      "properties": {
        "﻿番号": "HI005",
        "title": "御陵衛士屯所跡",
        "住所": "東山区下河原町(月真院前)",
        "": ""
      },
      "geometry": {
        "type": "Point",
        "coordinates": [
          135.46482,
          35.00039
        ]
      }
    },
    {
      "type": "Feature",
      "properties": {
        "﻿番号": "HI006",
        "title": "翠紅館跡",
        "住所": "東山区桝屋町",
        "": ""
      },
      "geometry": {
        "type": "Point",
        "coordinates": [
          135.46525,
          34.59567
        ]
      }
    },
    {
      "type": "Feature",
      "properties": {
        "﻿番号": "HI007",
        "title": "ＢＢＳ運動発祥地",
        "住所": "東山区妙法院前側町(京都女子高校前)",
        "": ""
      },
      "geometry": {
        "type": "Point",
        "coordinates": [
          135.46384,
          34.59213
        ]
      }
    },
    {
      "type": "Feature",
      "properties": {
        "﻿番号": "HI008",
        "title": "今熊野猿楽",
        "住所": "東山今熊野椥ノ森町(新熊野神社内)",
        "": ""
      },
      "geometry": {
        "type": "Point",
        "coordinates": [
          135.46253,
          34.5905
        ]
      }
    },
    {
      "type": "Feature",
      "properties": {
        "﻿番号": "HI009",
        "title": "法住寺殿蹟",
        "住所": "東山区三十三間堂廻り(法住寺門前)",
        "": ""
      },
      "geometry": {
        "type": "Point",
        "coordinates": [
          135.462,
          34.59149
        ]
      }
    },
    {
      "type": "Feature",
      "properties": {
        "﻿番号": "HI010",
        "title": "法住寺殿址",
        "住所": "東山区三十三間堂廻り(三十三間堂内)",
        "": ""
      },
      "geometry": {
        "type": "Point",
        "coordinates": [
          135.46189,
          34.59184
        ]
      }
    },
    {
      "type": "Feature",
      "properties": {
        "﻿番号": "HI011",
        "title": "六道の辻",
        "住所": "東山区松原通東大路西入轆轤町(六道珍皇寺前)",
        "": ""
      },
      "geometry": {
        "type": "Point",
        "coordinates": [
          135.46312,
          34.59517
        ]
      }
    },
    {
      "type": "Feature",
      "properties": {
        "﻿番号": "HI012",
        "title": "小野篁卿旧跡",
        "住所": "東山区松原通東大路西入轆轤町(六道珍皇寺前)",
        "": ""
      },
      "geometry": {
        "type": "Point",
        "coordinates": [
          135.46313,
          34.59516
        ]
      }
    },
    {
      "type": "Feature",
      "properties": {
        "﻿番号": "HI013",
        "title": "六道の辻",
        "住所": "東山区松原通大和大路東入一筋目西南角(西福寺前)",
        "": ""
      },
      "geometry": {
        "type": "Point",
        "coordinates": [
          135.46249,
          34.59519
        ]
      }
    },
    {
      "type": "Feature",
      "properties": {
        "﻿番号": "HI014",
        "title": "愛宕念仏寺元地",
        "住所": "東山区松原通大和大路東入北側",
        "": ""
      },
      "geometry": {
        "type": "Point",
        "coordinates": [
          135.46228,
          34.59533
        ]
      }
    },
    {
      "type": "Feature",
      "properties": {
        "﻿番号": "HI015",
        "title": "たばこ製造工場発祥地",
        "住所": "東山区上新シ町(社団法人関西厚生協会前)",
        "": ""
      },
      "geometry": {
        "type": "Point",
        "coordinates": [
          135.46239,
          34.59373
        ]
      }
    },
    {
      "type": "Feature",
      "properties": {
        "﻿番号": "HI016",
        "title": "粟田口",
        "住所": "東山区神宮道通三条下る東側(粟田小学校前)",
        "": ""
      },
      "geometry": {
        "type": "Point",
        "coordinates": [
          135.46572,
          35.0033
        ]
      }
    },
    {
      "type": "Feature",
      "properties": {
        "﻿番号": "HI017",
        "title": "明治天皇御小休所下京第二十七区小学校阯",
        "住所": "東山区正面通本町東入南側",
        "": ""
      },
      "geometry": {
        "type": "Point",
        "coordinates": [
          135.46136,
          34.59297
        ]
      }
    },
    {
      "type": "Feature",
      "properties": {
        "﻿番号": "HI018",
        "title": "明保野亭跡",
        "住所": "東山区清水二丁目(産寧坂東側)",
        "": ""
      },
      "geometry": {
        "type": "Point",
        "coordinates": [
          135.46511,
          34.59378
        ]
      }
    },
    {
      "type": "Feature",
      "properties": {
        "﻿番号": "HI019",
        "title": "月下氷人石",
        "住所": "東山区祇園町北側(八坂神社南楼門外)",
        "": ""
      },
      "geometry": {
        "type": "Point",
        "coordinates": [
          135.4642,
          35.00102
        ]
      }
    },
    {
      "type": "Feature",
      "properties": {
        "﻿番号": "HI020",
        "title": "乾山記念碑",
        "住所": "東山区清水一丁目(清水寺内)",
        "": ""
      },
      "geometry": {
        "type": "Point",
        "coordinates": [
          135.47056,
          34.59378
        ]
      }
    },
    {
      "type": "Feature",
      "properties": {
        "﻿番号": "HI021",
        "title": "仁清記念碑",
        "住所": "東山区清水一丁目(清水寺内)",
        "": ""
      },
      "geometry": {
        "type": "Point",
        "coordinates": [
          135.47056,
          34.59377
        ]
      }
    },
    {
      "type": "Feature",
      "properties": {
        "﻿番号": "HI022",
        "title": "阿国歌舞伎発祥地",
        "住所": "東山区川端通四条下る(南座西側)",
        "": ""
      },
      "geometry": {
        "type": "Point",
        "coordinates": [
          135.46189,
          35.00125
        ]
      }
    },
    {
      "type": "Feature",
      "properties": {
        "﻿番号": "HI023",
        "title": "奥田頴川宅蹟",
        "住所": "東山区大黒町通五条上る東側",
        "": ""
      },
      "geometry": {
        "type": "Point",
        "coordinates": [
          135.46164,
          34.5948
        ]
      }
    },
    {
      "type": "Feature",
      "properties": {
        "﻿番号": "HI024",
        "title": "青木聾米宅蹟",
        "住所": "東山区川端通四条上る東側(白川畔)",
        "": ""
      },
      "geometry": {
        "type": "Point",
        "coordinates": [
          135.46209,
          35.00187
        ]
      }
    },
    {
      "type": "Feature",
      "properties": {
        "﻿番号": "HI025",
        "title": "松永貞徳柿園址",
        "住所": "東山区本町通泉涌寺道上る東側(一橋小学校内)",
        "": ""
      },
      "geometry": {
        "type": "Point",
        "coordinates": [
          135.46144,
          34.59023
        ]
      }
    },
    {
      "type": "Feature",
      "properties": {
        "﻿番号": "HI026",
        "title": "七卿西竄紀念碑",
        "住所": "東山区東山通七条(妙法院内)",
        "": ""
      },
      "geometry": {
        "type": "Point",
        "coordinates": [
          135.46294,
          34.59275
        ]
      }
    },
    {
      "type": "Feature",
      "properties": {
        "﻿番号": "HI027",
        "title": "明治天皇妙法院行在所",
        "住所": "東山区東山通七条(妙法院内)",
        "": ""
      },
      "geometry": {
        "type": "Point",
        "coordinates": [
          135.46294,
          34.59244
        ]
      }
    },
    {
      "type": "Feature",
      "properties": {
        "﻿番号": "HI028",
        "title": "鳥羽伏見戦防長殉難者墓",
        "住所": "東山区本町十五丁目",
        "": ""
      },
      "geometry": {
        "type": "Point",
        "coordinates": [
          135.46343,
          34.58267
        ]
      }
    },
    {
      "type": "Feature",
      "properties": {
        "﻿番号": "HI029",
        "title": "小川亭跡",
        "住所": "東山区縄手通若松下る西側",
        "": ""
      },
      "geometry": {
        "type": "Point",
        "coordinates": [
          135.46225,
          35.00268
        ]
      }
    },
    {
      "type": "Feature",
      "properties": {
        "﻿番号": "HI030",
        "title": "竹内栖鳳邸跡",
        "住所": "東山区八坂上町(高台寺南門前)",
        "": ""
      },
      "geometry": {
        "type": "Point",
        "coordinates": [
          135.46468,
          34.59567
        ]
      }
    },
    {
      "type": "Feature",
      "properties": {
        "﻿番号": "HI031",
        "title": "刃物発祥地",
        "住所": "東山区祇園町北側(八坂神社内)",
        "": ""
      },
      "geometry": {
        "type": "Point",
        "coordinates": [
          135.46434,
          35.00144
        ]
      }
    },
    {
      "type": "Feature",
      "properties": {
        "﻿番号": "HI032",
        "title": "竹久夢二寓居の跡",
        "住所": "東山区桝屋町",
        "": ""
      },
      "geometry": {
        "type": "Point",
        "coordinates": [
          135.46504,
          34.59534
        ]
      }
    },
    {
      "type": "Feature",
      "properties": {
        "﻿番号": "HI033",
        "title": "平氏六波羅第・六波羅探題府址",
        "住所": "東山区六原通松原下る西側(六波羅蜜寺内)",
        "": ""
      },
      "geometry": {
        "type": "Point",
        "coordinates": [
          135.46245,
          34.5949
        ]
      }
    },
    {
      "type": "Feature",
      "properties": {
        "﻿番号": "HI034",
        "title": "大雅堂旧跡",
        "住所": "東山区鷲尾町(円山音楽堂内)",
        "": ""
      },
      "geometry": {
        "type": "Point",
        "coordinates": [
          135.46502,
          35.00076
        ]
      }
    },
    {
      "type": "Feature",
      "properties": {
        "﻿番号": "HI035",
        "title": "西行法師蔡華園院旧蹟",
        "住所": "東山区鷲尾町(西行庵内)",
        "": ""
      },
      "geometry": {
        "type": "Point",
        "coordinates": [
          135.46514,
          35.00065
        ]
      }
    },
    {
      "type": "Feature",
      "properties": {
        "﻿番号": "HI036",
        "title": "明智光秀首塚碑",
        "住所": "東山区三条通白川橋下る東入",
        "": ""
      },
      "geometry": {
        "type": "Point",
        "coordinates": [
          135.46495,
          35.00302
        ]
      }
    },
    {
      "type": "Feature",
      "properties": {
        "﻿番号": "HI037",
        "title": "瓜生石",
        "住所": "東山区林下町(知恩院黒門前)",
        "": ""
      },
      "geometry": {
        "type": "Point",
        "coordinates": [
          135.46545,
          35.00229
        ]
      }
    },
    {
      "type": "Feature",
      "properties": {
        "﻿番号": "HI038",
        "title": "大谷本願寺故地",
        "住所": "東山区林下町(元大谷崇泰院前)",
        "": ""
      },
      "geometry": {
        "type": "Point",
        "coordinates": [
          135.46546,
          35.0022
        ]
      }
    },
    {
      "type": "Feature",
      "properties": {
        "﻿番号": "HI039",
        "title": "歌の中山清閑寺",
        "住所": "東山区清閑寺山ノ内山町",
        "": ""
      },
      "geometry": {
        "type": "Point",
        "coordinates": [
          135.47135,
          34.59237
        ]
      }
    },
    {
      "type": "Feature",
      "properties": {
        "﻿番号": "HI040",
        "title": "佐藤継信・忠信塚",
        "住所": "東山区渋谷通東大路東入北側",
        "": ""
      },
      "geometry": {
        "type": "Point",
        "coordinates": [
          135.4632,
          34.5933
        ]
      }
    },
    {
      "type": "Feature",
      "properties": {
        "﻿番号": "HI041",
        "title": "三条小鍛冶宗近古跡",
        "住所": "東山区粟田口鍛冶町(仏光寺本廟内)",
        "": ""
      },
      "geometry": {
        "type": "Point",
        "coordinates": [
          135.47095,
          35.00304
        ]
      }
    },
    {
      "type": "Feature",
      "properties": {
        "﻿番号": "HI042",
        "title": "小松谷御坊旧跡",
        "住所": "東山区上馬町(正林寺前)",
        "": ""
      },
      "geometry": {
        "type": "Point",
        "coordinates": [
          135.46475,
          34.59282
        ]
      }
    },
    {
      "type": "Feature",
      "properties": {
        "﻿番号": "HI043",
        "title": "療病院址",
        "住所": "東山区粟田口三条坊町(青蓮院内)",
        "": ""
      },
      "geometry": {
        "type": "Point",
        "coordinates": [
          135.46593,
          35.00275
        ]
      }
    },
    {
      "type": "Feature",
      "properties": {
        "﻿番号": "HI044",
        "title": "青蓮院旧仮御所",
        "住所": "東山区粟田口三条坊町(青蓮院前)",
        "": ""
      },
      "geometry": {
        "type": "Point",
        "coordinates": [
          135.46574,
          35.00268
        ]
      }
    },
    {
      "type": "Feature",
      "properties": {
        "﻿番号": "HI045",
        "title": "蓮如上人御誕生地",
        "住所": "東山区林下町(元大谷崇泰院前)",
        "": ""
      },
      "geometry": {
        "type": "Point",
        "coordinates": [
          135.46551,
          35.0022
        ]
      }
    },
    {
      "type": "Feature",
      "properties": {
        "﻿番号": "HI046",
        "title": "月照・信海両上人遺蹟",
        "住所": "東山区清水一丁目(清水寺北総門前)",
        "": ""
      },
      "geometry": {
        "type": "Point",
        "coordinates": [
          135.47035,
          34.59422
        ]
      }
    },
    {
      "type": "Feature",
      "properties": {
        "﻿番号": "HI048",
        "title": "真清水蔵六宅跡",
        "住所": "東山区五条通大和大路東入北側",
        "": ""
      },
      "geometry": {
        "type": "Point",
        "coordinates": [
          135.46208,
          34.59429
        ]
      }
    },
    {
      "type": "Feature",
      "properties": {
        "﻿番号": "HI049",
        "title": "孝明天皇御胞衣埋納所",
        "住所": "東山区五条通東大路西入北側(若宮八幡宮内)",
        "": ""
      },
      "geometry": {
        "type": "Point",
        "coordinates": [
          135.46293,
          34.59425
        ]
      }
    },
    {
      "type": "Feature",
      "properties": {
        "﻿番号": "HI050",
        "title": "円光大師旧跡",
        "住所": "東山区上馬町(正林寺門前)",
        "": ""
      },
      "geometry": {
        "type": "Point",
        "coordinates": [
          135.46472,
          34.5928
        ]
      }
    },
    {
      "type": "Feature",
      "properties": {
        "﻿番号": "HI051",
        "title": "戊辰役殉難士菩提所",
        "住所": "東山区本町十五丁目(退耕庵前)",
        "": ""
      },
      "geometry": {
        "type": "Point",
        "coordinates": [
          135.46179,
          34.58473
        ]
      }
    },
    {
      "type": "Feature",
      "properties": {
        "﻿番号": "HI052",
        "title": "親鸞上人旧御廟所・本願寺発祥地・蓮如上人御誕生地",
        "住所": "東山区林下町(元大谷崇泰院前)",
        "": ""
      },
      "geometry": {
        "type": "Point",
        "coordinates": [
          135.46549,
          35.00221
        ]
      }
    },
    {
      "type": "Feature",
      "properties": {
        "﻿番号": "HI053",
        "title": "北政所化粧御殿跡",
        "住所": "東山区下河原町(円徳院前)",
        "": ""
      },
      "geometry": {
        "type": "Point",
        "coordinates": [
          135.46474,
          35.00003
        ]
      }
    },
    {
      "type": "Feature",
      "properties": {
        "﻿番号": "HI054",
        "title": "佛教大学建学地",
        "住所": "東山区林下町(知恩院山門前)",
        "": ""
      },
      "geometry": {
        "type": "Point",
        "coordinates": [
          135.4653,
          35.0017
        ]
      }
    },
    {
      "type": "Feature",
      "properties": {
        "﻿番号": "HI055",
        "title": "元和キリシタン殉教の地",
        "住所": "東山区川端通正面上る西側",
        "": ""
      },
      "geometry": {
        "type": "Point",
        "coordinates": [
          135.46035,
          34.5931
        ]
      }
    },
    {
      "type": "Feature",
      "properties": {
        "﻿番号": "HI056",
        "title": "三条通白川橋【道標】",
        "住所": "東山区三条通白川橋東詰",
        "": ""
      },
      "geometry": {
        "type": "Point",
        "coordinates": [
          135.4651,
          35.00334
        ]
      }
    },
    {
      "type": "Feature",
      "properties": {
        "﻿番号": "HI057",
        "title": "平清の道【道標】",
        "住所": "東山区三条通神宮道西北角",
        "": ""
      },
      "geometry": {
        "type": "Point",
        "coordinates": [
          135.46571,
          35.00343
        ]
      }
    },
    {
      "type": "Feature",
      "properties": {
        "﻿番号": "HI058",
        "title": "尊勝院庚申堂参道【道標】",
        "住所": "東山区粟田口三条坊町",
        "": ""
      },
      "geometry": {
        "type": "Point",
        "coordinates": [
          135.46575,
          35.00313
        ]
      }
    },
    {
      "type": "Feature",
      "properties": {
        "﻿番号": "HI059",
        "title": "三条通・大津道【道標】",
        "住所": "東山区三条通岡崎道東北角",
        "": ""
      },
      "geometry": {
        "type": "Point",
        "coordinates": [
          135.47034,
          35.00344
        ]
      }
    },
    {
      "type": "Feature",
      "properties": {
        "﻿番号": "HI060",
        "title": "三条大橋／大津路【道標】",
        "住所": "東山区三条通岡崎道東入北側(民家内)",
        "": ""
      },
      "geometry": {
        "type": "Point",
        "coordinates": [
          135.47067,
          35.00326
        ]
      }
    },
    {
      "type": "Feature",
      "properties": {
        "﻿番号": "HI061",
        "title": "祇園・東大谷・知恩院【道標】",
        "住所": "東山区金園町(金剛寺前)",
        "": ""
      },
      "geometry": {
        "type": "Point",
        "coordinates": [
          135.46434,
          34.59544
        ]
      }
    },
    {
      "type": "Feature",
      "properties": {
        "﻿番号": "HI062",
        "title": "今熊野観音【道標】",
        "住所": "東山区泉涌寺山内町(今熊野観音寺前)",
        "": ""
      },
      "geometry": {
        "type": "Point",
        "coordinates": [
          135.46501,
          34.58454
        ]
      }
    },
    {
      "type": "Feature",
      "properties": {
        "﻿番号": "HI063",
        "title": "京大仏・今熊野【道標】",
        "住所": "東山区泉涌寺山内町(今熊野観音寺内)",
        "": ""
      },
      "geometry": {
        "type": "Point",
        "coordinates": [
          135.46502,
          34.58461
        ]
      }
    },
    {
      "type": "Feature",
      "properties": {
        "﻿番号": "HI064",
        "title": "大仏・清水【道標】",
        "住所": "東山区泉涌寺山内町(善能寺前)",
        "": ""
      },
      "geometry": {
        "type": "Point",
        "coordinates": [
          135.46488,
          34.58431
        ]
      }
    },
    {
      "type": "Feature",
      "properties": {
        "﻿番号": "HI066",
        "title": "洛陽新熊野大権現道【道標】",
        "住所": "東山区今熊野椥ノ森町(新熊野神社内)",
        "": ""
      },
      "geometry": {
        "type": "Point",
        "coordinates": [
          135.46255,
          34.5904
        ]
      }
    },
    {
      "type": "Feature",
      "properties": {
        "﻿番号": "HI067",
        "title": "今熊野観音寺近道【道標】",
        "住所": "東山区泉涌寺山内町(今熊野観音寺内)",
        "": ""
      },
      "geometry": {
        "type": "Point",
        "coordinates": [
          135.46502,
          34.58461
        ]
      }
    },
    {
      "type": "Feature",
      "properties": {
        "﻿番号": "HI068",
        "title": "高台寺・清水寺・円山公園・知恩院【道標】",
        "住所": "東山区鷲尾町",
        "": ""
      },
      "geometry": {
        "type": "Point",
        "coordinates": [
          135.46501,
          35.00073
        ]
      }
    },
    {
      "type": "Feature",
      "properties": {
        "﻿番号": "HI069",
        "title": "高台寺・清水寺・円山公園・知恩院【道標】",
        "住所": "東山区鷲尾町",
        "": ""
      },
      "geometry": {
        "type": "Point",
        "coordinates": [
          135.46488,
          35.00068
        ]
      }
    },
    {
      "type": "Feature",
      "properties": {
        "﻿番号": "HI070",
        "title": "渋谷街道【道標】",
        "住所": "東山区清閑寺山ノ内町",
        "": ""
      },
      "geometry": {
        "type": "Point",
        "coordinates": [
          135.47121,
          34.59205
        ]
      }
    },
    {
      "type": "Feature",
      "properties": {
        "﻿番号": "HI071",
        "title": "清閑寺／山科・醍醐・大津道【道標】",
        "住所": "東山区清閑寺山ノ内町",
        "": ""
      },
      "geometry": {
        "type": "Point",
        "coordinates": [
          135.47135,
          34.59237
        ]
      }
    },
    {
      "type": "Feature",
      "properties": {
        "﻿番号": "HI073",
        "title": "高台寺・清水【道標】",
        "住所": "東山区鷲尾町",
        "": ""
      },
      "geometry": {
        "type": "Point",
        "coordinates": [
          135.4651,
          35.00065
        ]
      }
    },
    {
      "type": "Feature",
      "properties": {
        "﻿番号": "HI074",
        "title": "東梅宮並明智光秀墳【道標】",
        "住所": "東山区三条通白川橋下る東側",
        "": ""
      },
      "geometry": {
        "type": "Point",
        "coordinates": [
          135.46491,
          35.00305
        ]
      }
    },
    {
      "type": "Feature",
      "properties": {
        "﻿番号": "HI075",
        "title": "門前白川道【道標】",
        "住所": "東山区東大路通白川西入北側",
        "": ""
      },
      "geometry": {
        "type": "Point",
        "coordinates": [
          135.46391,
          35.00235
        ]
      }
    },
    {
      "type": "Feature",
      "properties": {
        "﻿番号": "HI076",
        "title": "豊国神社へ是より一町【道標】",
        "住所": "東山区茶屋町",
        "": ""
      },
      "geometry": {
        "type": "Point",
        "coordinates": [
          135.46165,
          34.59216
        ]
      }
    },
    {
      "type": "Feature",
      "properties": {
        "﻿番号": "HI077",
        "title": "東山聖天参道【道標】",
        "住所": "東山区妙法院前側町",
        "": ""
      },
      "geometry": {
        "type": "Point",
        "coordinates": [
          135.46289,
          34.5922
        ]
      }
    },
    {
      "type": "Feature",
      "properties": {
        "﻿番号": "HI081",
        "title": "道元禅師荼毘御遺跡塔",
        "住所": "東山区鷲尾町",
        "": ""
      },
      "geometry": {
        "type": "Point",
        "coordinates": [
          135.46509,
          35.00064
        ]
      }
    },
    {
      "type": "Feature",
      "properties": {
        "﻿番号": "HI082",
        "title": "法然上人御遺跡青龍寺",
        "住所": "東山区八坂上町",
        "": ""
      },
      "geometry": {
        "type": "Point",
        "coordinates": [
          135.46447,
          34.59573
        ]
      }
    },
    {
      "type": "Feature",
      "properties": {
        "﻿番号": "HI083",
        "title": "大谷道【道標】",
        "住所": "東山区五条坂東大路東入",
        "": ""
      },
      "geometry": {
        "type": "Point",
        "coordinates": [
          135.46349,
          34.59393
        ]
      }
    },
    {
      "type": "Feature",
      "properties": {
        "﻿番号": "HI084",
        "title": "大谷・鳥部野【道標】",
        "住所": "東山区五条坂東大路東入",
        "": ""
      },
      "geometry": {
        "type": "Point",
        "coordinates": [
          135.46349,
          34.59393
        ]
      }
    },
    {
      "type": "Feature",
      "properties": {
        "﻿番号": "HI085",
        "title": "清水寺道【道標】",
        "住所": "東山区五条坂東大路東入",
        "": ""
      },
      "geometry": {
        "type": "Point",
        "coordinates": [
          135.46349,
          34.59393
        ]
      }
    },
    {
      "type": "Feature",
      "properties": {
        "﻿番号": "HI086",
        "title": "豊国廟参道【道標】",
        "住所": "東山区妙法院前側町",
        "": ""
      },
      "geometry": {
        "type": "Point",
        "coordinates": [
          135.46302,
          34.59216
        ]
      }
    },
    {
      "type": "Feature",
      "properties": {
        "﻿番号": "HI087",
        "title": "成就院【道標】",
        "住所": "東山区松原通東大路東入",
        "": ""
      },
      "geometry": {
        "type": "Point",
        "coordinates": [
          135.46399,
          34.59505
        ]
      }
    },
    {
      "type": "Feature",
      "properties": {
        "﻿番号": "HI088",
        "title": "東大谷参道【道標】",
        "住所": "東山区東大路四条下る東側",
        "": ""
      },
      "geometry": {
        "type": "Point",
        "coordinates": [
          135.46384,
          35.00096
        ]
      }
    },
    {
      "type": "Feature",
      "properties": {
        "﻿番号": "HI089",
        "title": "鳥戸野陵・中尾陵参道【道標】",
        "住所": "東山区今熊野池田町",
        "": ""
      },
      "geometry": {
        "type": "Point",
        "coordinates": [
          135.46272,
          34.59071
        ]
      }
    },
    {
      "type": "Feature",
      "properties": {
        "﻿番号": "HI090",
        "title": "泉山御陵参道【道標】",
        "住所": "東山区泉涌寺雀ヶ森町",
        "": ""
      },
      "geometry": {
        "type": "Point",
        "coordinates": [
          135.46255,
          34.58571
        ]
      }
    },
    {
      "type": "Feature",
      "properties": {
        "﻿番号": "HI091",
        "title": "稲荷・東福寺道【道標】",
        "住所": "東山区泉涌寺雀ヶ森町",
        "": ""
      },
      "geometry": {
        "type": "Point",
        "coordinates": [
          135.46256,
          34.5857
        ]
      }
    },
    {
      "type": "Feature",
      "properties": {
        "﻿番号": "HI092",
        "title": "仲恭天皇九条陵・崇徳天皇中宮皇嘉門院月輪南陵参道【道標】",
        "住所": "東山区本町十二丁目(JR・京阪東福寺駅東口前)",
        "": ""
      },
      "geometry": {
        "type": "Point",
        "coordinates": [
          135.46132,
          34.58523
        ]
      }
    },
    {
      "type": "Feature",
      "properties": {
        "﻿番号": "HI093",
        "title": "延喜式八坂墓",
        "住所": "東山区八坂上町(法観寺内)",
        "": ""
      },
      "geometry": {
        "type": "Point",
        "coordinates": [
          135.46449,
          34.59543
        ]
      }
    },
    {
      "type": "Feature",
      "properties": {
        "﻿番号": "HI094",
        "title": "伏水街道一之橋旧趾",
        "住所": "東山区本町十一丁目(宝樹寺前)",
        "": ""
      },
      "geometry": {
        "type": "Point",
        "coordinates": [
          135.46132,
          34.58579
        ]
      }
    },
    {
      "type": "Feature",
      "properties": {
        "﻿番号": "HI095",
        "title": "高山彦九郎先生皇居望拝趾",
        "住所": "東山区三条大橋東詰南側",
        "": ""
      },
      "geometry": {
        "type": "Point",
        "coordinates": [
          135.46211,
          35.00322
        ]
      }
    },
    {
      "type": "Feature",
      "properties": {
        "﻿番号": "HI096",
        "title": "西山国師御終焉地",
        "住所": "東山区本町十九丁目(遣迎院前)",
        "": ""
      },
      "geometry": {
        "type": "Point",
        "coordinates": [
          135.4615,
          34.58271
        ]
      }
    },
    {
      "type": "Feature",
      "properties": {
        "﻿番号": "HI097",
        "title": "双林寺道【道標】",
        "住所": "東山区鷲尾町",
        "": ""
      },
      "geometry": {
        "type": "Point",
        "coordinates": [
          135.46502,
          35.00073
        ]
      }
    },
    {
      "type": "Feature",
      "properties": {
        "﻿番号": "HI098",
        "title": "是より東　山城国【道標】",
        "住所": "東山区茶屋町(京都国立博物館内)",
        "": ""
      },
      "geometry": {
        "type": "Point",
        "coordinates": [
          135.46202,
          34.59224
        ]
      }
    },
    {
      "type": "Feature",
      "properties": {
        "﻿番号": "HI099",
        "title": "六条天皇陵参道【道標】",
        "住所": "東山区清閑寺山ノ内町",
        "": ""
      },
      "geometry": {
        "type": "Point",
        "coordinates": [
          135.47131,
          34.59226
        ]
      }
    },
    {
      "type": "Feature",
      "properties": {
        "﻿番号": "HI100",
        "title": "清水道【道標】",
        "住所": "東山区祇園町南側",
        "": ""
      },
      "geometry": {
        "type": "Point",
        "coordinates": [
          135.46423,
          35.00093
        ]
      }
    },
    {
      "type": "Feature",
      "properties": {
        "﻿番号": "HI101",
        "title": "茶わん坂【道標】",
        "住所": "東山区白糸町",
        "": ""
      },
      "geometry": {
        "type": "Point",
        "coordinates": [
          135.46412,
          34.59428
        ]
      }
    },
    {
      "type": "Feature",
      "properties": {
        "﻿番号": "HI102",
        "title": "西大谷・清水【道標】",
        "住所": "東山区上馬町",
        "": ""
      },
      "geometry": {
        "type": "Point",
        "coordinates": [
          135.46411,
          34.59301
        ]
      }
    },
    {
      "type": "Feature",
      "properties": {
        "﻿番号": "HI103",
        "title": "後白河天皇陵参道【道標】",
        "住所": "東山区三十三間堂廻り(法住寺前)",
        "": ""
      },
      "geometry": {
        "type": "Point",
        "coordinates": [
          135.46205,
          34.59156
        ]
      }
    },
    {
      "type": "Feature",
      "properties": {
        "﻿番号": "HI104",
        "title": "那須与市墓参道【道標】",
        "住所": "東山区泉涌寺山内町(即成院内)",
        "": ""
      },
      "geometry": {
        "type": "Point",
        "coordinates": [
          135.46375,
          34.58536
        ]
      }
    },
    {
      "type": "Feature",
      "properties": {
        "﻿番号": "HI105",
        "title": "駅伝の碑",
        "住所": "東山区三条通川端角(三条大橋東詰北側)",
        "": ""
      },
      "geometry": {
        "type": "Point",
        "coordinates": [
          135.46194,
          35.00331
        ]
      }
    },
    {
      "type": "Feature",
      "properties": {
        "﻿番号": "HI107",
        "title": "法観寺境内",
        "住所": "東山区八坂上町(法観寺前)",
        "": ""
      },
      "geometry": {
        "type": "Point",
        "coordinates": [
          135.46439,
          34.59549
        ]
      }
    },
    {
      "type": "Feature",
      "properties": {
        "﻿番号": "HI108",
        "title": "北政所御殿跡",
        "住所": "東山区下河原町",
        "": ""
      },
      "geometry": {
        "type": "Point",
        "coordinates": [
          135.4648,
          35.00048
        ]
      }
    },
    {
      "type": "Feature",
      "properties": {
        "﻿番号": "HI109",
        "title": "子安塔跡",
        "住所": "東山区清水一丁目",
        "": ""
      },
      "geometry": {
        "type": "Point",
        "coordinates": [
          135.46582,
          34.59433
        ]
      }
    },
    {
      "type": "Feature",
      "properties": {
        "﻿番号": "HI110",
        "title": "関西統一学舎碑",
        "住所": "東山区下河原町(高台寺内)",
        "": ""
      },
      "geometry": {
        "type": "Point",
        "coordinates": [
          135.46545,
          35.00021
        ]
      }
    },
    {
      "type": "Feature",
      "properties": {
        "﻿番号": "HI111",
        "title": "歌舞練場碑",
        "住所": "東山区祇園町南側(弥栄会館前)",
        "": ""
      },
      "geometry": {
        "type": "Point",
        "coordinates": [
          135.463,
          35.00054
        ]
      }
    },
    {
      "type": "Feature",
      "properties": {
        "﻿番号": "HI112",
        "title": "高台寺台所坂・ねねの道【道標】",
        "住所": "東山区下河原町(高台寺前)",
        "": ""
      },
      "geometry": {
        "type": "Point",
        "coordinates": [
          135.46476,
          35.00017
        ]
      }
    },
    {
      "type": "Feature",
      "properties": {
        "﻿番号": "HI113",
        "title": "開山国阿上人参詣道【道標】",
        "住所": "東山区桝屋町",
        "": ""
      },
      "geometry": {
        "type": "Point",
        "coordinates": [
          135.46509,
          34.59549
        ]
      }
    },
    {
      "type": "Feature",
      "properties": {
        "﻿番号": "HI114",
        "title": "徳川家康公正室旭姫墓【道標】",
        "住所": "東山区本町十五丁目(東福寺南明院前)",
        "": ""
      },
      "geometry": {
        "type": "Point",
        "coordinates": [
          135.46238,
          34.58228
        ]
      }
    },
    {
      "type": "Feature",
      "properties": {
        "﻿番号": "HI115",
        "title": "防長藩士墓所【道標】",
        "住所": "東山区本町十五丁目(東福寺勅使門前)",
        "": ""
      },
      "geometry": {
        "type": "Point",
        "coordinates": [
          135.46243,
          34.583
        ]
      }
    },
    {
      "type": "Feature",
      "properties": {
        "﻿番号": "HI116",
        "title": "仲恭天皇九条陵参道【道標】",
        "住所": "東山区本町十五丁目(東福寺勅使門前)",
        "": ""
      },
      "geometry": {
        "type": "Point",
        "coordinates": [
          135.46243,
          34.583
        ]
      }
    },
    {
      "type": "Feature",
      "properties": {
        "﻿番号": "HI117",
        "title": "旧鹿児島藩士招魂碑【道標】",
        "住所": "東山区本町十五丁目(東福寺本坊南側)",
        "": ""
      },
      "geometry": {
        "type": "Point",
        "coordinates": [
          135.46279,
          34.58349
        ]
      }
    },
    {
      "type": "Feature",
      "properties": {
        "﻿番号": "HI118",
        "title": "鳥戸野陵・泉山御陵参道【道標】",
        "住所": "東山区今熊野宝蔵町",
        "": ""
      },
      "geometry": {
        "type": "Point",
        "coordinates": [
          135.4635,
          34.59038
        ]
      }
    },
    {
      "type": "Feature",
      "properties": {
        "﻿番号": "HI119",
        "title": "鳥戸野陵参道【道標】",
        "住所": "東山区今熊野泉山町",
        "": ""
      },
      "geometry": {
        "type": "Point",
        "coordinates": [
          135.46441,
          34.58539
        ]
      }
    },
    {
      "type": "Feature",
      "properties": {
        "﻿番号": "HI120",
        "title": "孝明天皇陵・英照皇太后陵・後堀河天皇陵参道【道標】",
        "住所": "東山区泉涌寺山内町(泉涌寺内)",
        "": ""
      },
      "geometry": {
        "type": "Point",
        "coordinates": [
          135.46493,
          34.58424
        ]
      }
    },
    {
      "type": "Feature",
      "properties": {
        "﻿番号": "HI121",
        "title": "泉山御陵参道【道標】",
        "住所": "東山区泉涌寺山内町",
        "": ""
      },
      "geometry": {
        "type": "Point",
        "coordinates": [
          135.46447,
          34.58456
        ]
      }
    },
    {
      "type": "Feature",
      "properties": {
        "﻿番号": "HI122",
        "title": "三国幽民翁碑【道標】",
        "住所": "東山区清水三丁目",
        "": ""
      },
      "geometry": {
        "type": "Point",
        "coordinates": [
          135.46516,
          34.59487
        ]
      }
    },
    {
      "type": "Feature",
      "properties": {
        "﻿番号": "HI123",
        "title": "芳文翁之墓境内にあり【道標】",
        "住所": "東山区清水三丁目",
        "": ""
      },
      "geometry": {
        "type": "Point",
        "coordinates": [
          135.46516,
          34.59487
        ]
      }
    },
    {
      "type": "Feature",
      "properties": {
        "﻿番号": "HI124",
        "title": "菊池契月之墓此寺にあり【道標】",
        "住所": "東山区清水三丁目",
        "": ""
      },
      "geometry": {
        "type": "Point",
        "coordinates": [
          135.46516,
          34.59487
        ]
      }
    },
    {
      "type": "Feature",
      "properties": {
        "﻿番号": "HI125",
        "title": "頼山陽先生墓碑【道標】",
        "住所": "東山区円山町",
        "": ""
      },
      "geometry": {
        "type": "Point",
        "coordinates": [
          135.46505,
          35.00112
        ]
      }
    },
    {
      "type": "Feature",
      "properties": {
        "﻿番号": "HI126",
        "title": "京都霊山護国神社南へ三町【道標】",
        "住所": "東山区円山町",
        "": ""
      },
      "geometry": {
        "type": "Point",
        "coordinates": [
          135.46505,
          35.00112
        ]
      }
    },
    {
      "type": "Feature",
      "properties": {
        "﻿番号": "HI127",
        "title": "後宇多天皇菩提所",
        "住所": "東山区本町十五丁目(桂昌院前)",
        "": ""
      },
      "geometry": {
        "type": "Point",
        "coordinates": [
          135.46202,
          34.58314
        ]
      }
    },
    {
      "type": "Feature",
      "properties": {
        "﻿番号": "HI128",
        "title": "見真大師御荼毘所道【道標】",
        "住所": "東山区今熊野総山町(延仁寺前)",
        "": ""
      },
      "geometry": {
        "type": "Point",
        "coordinates": [
          135.47024,
          34.58583
        ]
      }
    },
    {
      "type": "Feature",
      "properties": {
        "﻿番号": "HI129",
        "title": "親鸞聖人御荼毘所",
        "住所": "東山区今熊野総山町(延仁寺前)",
        "": ""
      },
      "geometry": {
        "type": "Point",
        "coordinates": [
          135.47018,
          34.58577
        ]
      }
    },
    {
      "type": "Feature",
      "properties": {
        "﻿番号": "HI130",
        "title": "北座跡",
        "住所": "東山区川端通四条上る東側",
        "": ""
      },
      "geometry": {
        "type": "Point",
        "coordinates": [
          135.462,
          35.00157
        ]
      }
    },
    {
      "type": "Feature",
      "properties": {
        "﻿番号": "HI131",
        "title": "大仏殿石垣",
        "住所": "東山区茶屋町",
        "": ""
      },
      "geometry": {
        "type": "Point",
        "coordinates": [
          135.46172,
          34.59315
        ]
      }
    },
    {
      "type": "Feature",
      "properties": {
        "﻿番号": "HI132",
        "title": "清水ちかみち【道標】",
        "住所": "東山区白糸町",
        "": ""
      },
      "geometry": {
        "type": "Point",
        "coordinates": [
          135.46412,
          34.59428
        ]
      }
    },
    {
      "type": "Feature",
      "properties": {
        "﻿番号": "HI133",
        "title": "合槌稲荷大明神参道【道標】",
        "住所": "東山区中之町",
        "": ""
      },
      "geometry": {
        "type": "Point",
        "coordinates": [
          135.47036,
          35.0034
        ]
      }
    },
    {
      "type": "Feature",
      "properties": {
        "﻿番号": "HI134",
        "title": "出世恵美須神社参道【道標】",
        "住所": "東山区中之町",
        "": ""
      },
      "geometry": {
        "type": "Point",
        "coordinates": [
          135.4703,
          35.0033
        ]
      }
    },
    {
      "type": "Feature",
      "properties": {
        "﻿番号": "HI135",
        "title": "青蓮院宮御墓参道【道標】",
        "住所": "東山区粟田口三条坊町",
        "": ""
      },
      "geometry": {
        "type": "Point",
        "coordinates": [
          135.47006,
          35.00312
        ]
      }
    },
    {
      "type": "Feature",
      "properties": {
        "﻿番号": "HI136",
        "title": "五条三位俊成卿墓道【道標】",
        "住所": "東山区本町十五丁目(正覚庵前)",
        "": ""
      },
      "geometry": {
        "type": "Point",
        "coordinates": [
          135.46238,
          34.58302
        ]
      }
    },
    {
      "type": "Feature",
      "properties": {
        "﻿番号": "HI137",
        "title": "庚申堂登口【道標】",
        "住所": "東山区粟田口鍛冶町(粟田神社前)",
        "": ""
      },
      "geometry": {
        "type": "Point",
        "coordinates": [
          135.47037,
          35.00308
        ]
      }
    },
    {
      "type": "Feature",
      "properties": {
        "﻿番号": "HI138",
        "title": "三十三間堂・大谷【道標】",
        "住所": "東山区茶屋町(方広寺内)",
        "": ""
      },
      "geometry": {
        "type": "Point",
        "coordinates": [
          135.46196,
          34.59306
        ]
      }
    },
    {
      "type": "Feature",
      "properties": {
        "﻿番号": "HI139",
        "title": "水内杏平漆庵地",
        "住所": "東山区正面通大和大路西入北側",
        "": ""
      },
      "geometry": {
        "type": "Point",
        "coordinates": [
          135.46147,
          34.59306
        ]
      }
    },
    {
      "type": "Feature",
      "properties": {
        "﻿番号": "HI140",
        "title": "耳塚修営供養碑",
        "住所": "東山区正面通大和大路西入南側",
        "": ""
      },
      "geometry": {
        "type": "Point",
        "coordinates": [
          135.46134,
          34.59295
        ]
      }
    },
    {
      "type": "Feature",
      "properties": {
        "﻿番号": "HI141",
        "title": "豊太閤三百年祭記念碑",
        "住所": "東山区今熊野北日吉町(豊国廟内)",
        "": ""
      },
      "geometry": {
        "type": "Point",
        "coordinates": [
          135.46547,
          34.59181
        ]
      }
    },
    {
      "type": "Feature",
      "properties": {
        "﻿番号": "HI142",
        "title": "坂本龍馬お龍「結婚式場」跡",
        "住所": "東山区三条通白川橋東入南側",
        "": ""
      },
      "geometry": {
        "type": "Point",
        "coordinates": [
          135.46528,
          35.00332
        ]
      }
    },
    {
      "type": "Feature",
      "properties": {
        "﻿番号": "HI143",
        "title": "霊山表忠碑",
        "住所": "東山区清閑寺霊山町(京都霊山護国神社内)",
        "": ""
      },
      "geometry": {
        "type": "Point",
        "coordinates": [
          135.46594,
          34.59565
        ]
      }
    },
    {
      "type": "Feature",
      "properties": {
        "﻿番号": "HI144",
        "title": "坂本龍馬忠魂碑",
        "住所": "東山区清閑寺霊山町(京都霊山護国神社内)",
        "": ""
      },
      "geometry": {
        "type": "Point",
        "coordinates": [
          135.47,
          34.59573
        ]
      }
    },
    {
      "type": "Feature",
      "properties": {
        "﻿番号": "HI145",
        "title": "木戸孝允神道碑",
        "住所": "東山区清閑寺霊山町(京都霊山護国神社内)",
        "": ""
      },
      "geometry": {
        "type": "Point",
        "coordinates": [
          135.46588,
          34.59571
        ]
      }
    },
    {
      "type": "Feature",
      "properties": {
        "﻿番号": "HI146",
        "title": "土佐志士寓居跡",
        "住所": "東山区新瓦町東組(三十三間堂南大門東)",
        "": ""
      },
      "geometry": {
        "type": "Point",
        "coordinates": [
          135.46218,
          34.59127
        ]
      }
    },
    {
      "type": "Feature",
      "properties": {
        "﻿番号": "HI147",
        "title": "池田屋事変殉難志士墓所跡",
        "住所": "東山区若松町",
        "": ""
      },
      "geometry": {
        "type": "Point",
        "coordinates": [
          135.46251,
          35.0031
        ]
      }
    },
    {
      "type": "Feature",
      "properties": {
        "﻿番号": "HI148",
        "title": "井上世外詩碑",
        "住所": "東山区粟田口高台寺山町",
        "": ""
      },
      "geometry": {
        "type": "Point",
        "coordinates": [
          135.47182,
          34.59554
        ]
      }
    },
    {
      "type": "Feature",
      "properties": {
        "﻿番号": "HI149",
        "title": "幕末志士葬送の道",
        "住所": "東山区桝屋町(霊明神社神道墓地前)",
        "": ""
      },
      "geometry": {
        "type": "Point",
        "coordinates": [
          135.46551,
          34.59552
        ]
      }
    },
    {
      "type": "Feature",
      "properties": {
        "﻿番号": "HI150",
        "title": "佐藤継信・忠信墓",
        "住所": "東山区渋谷通東大路東入北側",
        "": ""
      },
      "geometry": {
        "type": "Point",
        "coordinates": [
          135.46323,
          34.59335
        ]
      }
    },
    {
      "type": "Feature",
      "properties": {
        "﻿番号": "HI151",
        "title": "佐藤政養招魂碑",
        "住所": "東山区渋谷通東大路東入北側",
        "": ""
      },
      "geometry": {
        "type": "Point",
        "coordinates": [
          135.46326,
          34.59335
        ]
      }
    },
    {
      "type": "Feature",
      "properties": {
        "﻿番号": "HI152",
        "title": "佐藤文褒翁碑",
        "住所": "東山区渋谷通東大路東入北側",
        "": ""
      },
      "geometry": {
        "type": "Point",
        "coordinates": [
          135.46327,
          34.59335
        ]
      }
    },
    {
      "type": "Feature",
      "properties": {
        "﻿番号": "HI153",
        "title": "明治天皇御小休所下京第二十七区小学校趾",
        "住所": "東山区正面通本町東入南側",
        "": ""
      },
      "geometry": {
        "type": "Point",
        "coordinates": [
          135.46138,
          34.59297
        ]
      }
    },
    {
      "type": "Feature",
      "properties": {
        "﻿番号": "HI154",
        "title": "六条天皇御陵・高倉天皇御陵参道【道標】",
        "住所": "東山区清閑寺山ノ内町",
        "": ""
      },
      "geometry": {
        "type": "Point",
        "coordinates": [
          135.47173,
          34.59241
        ]
      }
    },
    {
      "type": "Feature",
      "properties": {
        "﻿番号": "HI155",
        "title": "六条天皇陵・高倉天皇陵／天智天皇陵・僧正遍照墓参道",
        "住所": "東山区清閑寺山ノ内町",
        "": ""
      },
      "geometry": {
        "type": "Point",
        "coordinates": [
          135.47137,
          34.59216
        ]
      }
    },
    {
      "type": "Feature",
      "properties": {
        "﻿番号": "HI156",
        "title": "大西郷・月照謀議旧趾",
        "住所": "東山区清閑寺山ノ内町(清閑寺内)",
        "": ""
      },
      "geometry": {
        "type": "Point",
        "coordinates": [
          135.47179,
          34.59238
        ]
      }
    },
    {
      "type": "Feature",
      "properties": {
        "﻿番号": "HI157",
        "title": "石崎先生堂射碑",
        "住所": "東山区三十三間堂廻り(三十三間堂内)",
        "": ""
      },
      "geometry": {
        "type": "Point",
        "coordinates": [
          135.46163,
          34.59171
        ]
      }
    },
    {
      "type": "Feature",
      "properties": {
        "﻿番号": "HI158",
        "title": "百僧供養碑",
        "住所": "東山区三十三間堂廻り(三十三間堂内)",
        "": ""
      },
      "geometry": {
        "type": "Point",
        "coordinates": [
          135.46162,
          34.59172
        ]
      }
    },
    {
      "type": "Feature",
      "properties": {
        "﻿番号": "HI159",
        "title": "漏世公子及寿芳夫人遷墓碑",
        "住所": "東山区今熊野北日吉町(太閤坦)",
        "": ""
      },
      "geometry": {
        "type": "Point",
        "coordinates": [
          135.46551,
          34.59199
        ]
      }
    },
    {
      "type": "Feature",
      "properties": {
        "﻿番号": "HI160",
        "title": "伊藤春畝詩碑",
        "住所": "東山区清閑寺清水上山町",
        "": ""
      },
      "geometry": {
        "type": "Point",
        "coordinates": [
          135.47054,
          34.59568
        ]
      }
    },
    {
      "type": "Feature",
      "properties": {
        "﻿番号": "HI161",
        "title": "清水山登り口【道標】",
        "住所": "東山区清水一丁目(清水寺内)",
        "": ""
      },
      "geometry": {
        "type": "Point",
        "coordinates": [
          135.4706,
          34.5942
        ]
      }
    },
    {
      "type": "Feature",
      "properties": {
        "﻿番号": "HI162",
        "title": "四条天皇外二十四御方御陵参道【道標】",
        "住所": "東山区泉涌寺山内町(泉涌寺内)",
        "": ""
      },
      "geometry": {
        "type": "Point",
        "coordinates": [
          135.4648,
          34.58408
        ]
      }
    },
    {
      "type": "Feature",
      "properties": {
        "﻿番号": "HI163",
        "title": "九条陵・月輪南陵参道【道標】",
        "住所": "東山区本町十五丁目",
        "": ""
      },
      "geometry": {
        "type": "Point",
        "coordinates": [
          135.46313,
          34.58302
        ]
      }
    },
    {
      "type": "Feature",
      "properties": {
        "﻿番号": "HI164",
        "title": "山科・岩間寺・醍醐・大津三井寺【道標】",
        "住所": "東山区泉涌寺山内町(今熊野観音寺内)",
        "": ""
      },
      "geometry": {
        "type": "Point",
        "coordinates": [
          135.46502,
          34.58461
        ]
      }
    },
    {
      "type": "Feature",
      "properties": {
        "﻿番号": "HI165",
        "title": "楊貴妃観世音・善能寺【道標】",
        "住所": "東山区泉涌寺山内町(今熊野観音寺内)",
        "": ""
      },
      "geometry": {
        "type": "Point",
        "coordinates": [
          135.46502,
          34.58461
        ]
      }
    },
    {
      "type": "Feature",
      "properties": {
        "﻿番号": "HI166",
        "title": "花園天皇陵参道【道標】",
        "住所": "東山区粟田口三条坊町",
        "": ""
      },
      "geometry": {
        "type": "Point",
        "coordinates": [
          135.46571,
          35.00252
        ]
      }
    },
    {
      "type": "Feature",
      "properties": {
        "﻿番号": "HI167",
        "title": "戸田忠至碑",
        "住所": "東山区今熊野泉山町(泉涌寺内)",
        "": ""
      },
      "geometry": {
        "type": "Point",
        "coordinates": [
          135.46565,
          34.58364
        ]
      }
    },
    {
      "type": "Feature",
      "properties": {
        "﻿番号": "HI168",
        "title": "前田正名碑",
        "住所": "東山区林下町(知恩院内)",
        "": ""
      },
      "geometry": {
        "type": "Point",
        "coordinates": [
          135.46556,
          35.00183
        ]
      }
    },
    {
      "type": "Feature",
      "properties": {
        "﻿番号": "HI169",
        "title": "日本赤十字社京都支部病院開院紀念碑",
        "住所": "東山区本町十五丁目(京都第一赤十字病院内)",
        "": ""
      },
      "geometry": {
        "type": "Point",
        "coordinates": [
          135.46177,
          34.58503
        ]
      }
    },
    {
      "type": "Feature",
      "properties": {
        "﻿番号": "HI170",
        "title": "いなり・東寺【道標】",
        "住所": "東山区本町十三丁目",
        "": ""
      },
      "geometry": {
        "type": "Point",
        "coordinates": [
          135.46138,
          34.58507
        ]
      }
    },
    {
      "type": "Feature",
      "properties": {
        "﻿番号": "HI171",
        "title": "維新戦役忠魂碑",
        "住所": "東山区本町十五丁目(東福寺内)",
        "": ""
      },
      "geometry": {
        "type": "Point",
        "coordinates": [
          135.46267,
          34.5832
        ]
      }
    },
    {
      "type": "Feature",
      "properties": {
        "﻿番号": "HI172",
        "title": "維新戦役防長藩士墓",
        "住所": "東山区本町十五丁目",
        "": ""
      },
      "geometry": {
        "type": "Point",
        "coordinates": [
          135.46312,
          34.583
        ]
      }
    },
    {
      "type": "Feature",
      "properties": {
        "﻿番号": "HI173",
        "title": "防長藩士崇忠碑",
        "住所": "東山区本町十五丁目",
        "": ""
      },
      "geometry": {
        "type": "Point",
        "coordinates": [
          135.46349,
          34.58272
        ]
      }
    },
    {
      "type": "Feature",
      "properties": {
        "﻿番号": "HI174",
        "title": "建仁寺領新家地境界石",
        "住所": "東山区本町通五条上る東側",
        "": ""
      },
      "geometry": {
        "type": "Point",
        "coordinates": [
          135.4613,
          34.59454
        ]
      }
    },
    {
      "type": "Feature",
      "properties": {
        "﻿番号": "HI175",
        "title": "清水寺・将軍塚・伊藤博文詩碑・高台寺【道標】",
        "住所": "東山区清閑寺清水上山町",
        "": ""
      },
      "geometry": {
        "type": "Point",
        "coordinates": [
          135.47118,
          34.59522
        ]
      }
    },
    {
      "type": "Feature",
      "properties": {
        "﻿番号": "HI176",
        "title": "清水寺・将軍塚【道標】",
        "住所": "東山区清閑寺清水上山町",
        "": ""
      },
      "geometry": {
        "type": "Point",
        "coordinates": [
          135.47126,
          34.59507
        ]
      }
    },
    {
      "type": "Feature",
      "properties": {
        "﻿番号": "HI177",
        "title": "清水寺・将軍塚・稚児ヶ池・山科街道【道標】",
        "住所": "東山区粟田口高台寺山町",
        "": ""
      },
      "geometry": {
        "type": "Point",
        "coordinates": [
          135.47155,
          34.59498
        ]
      }
    },
    {
      "type": "Feature",
      "properties": {
        "﻿番号": "HI178",
        "title": "清水寺奥之院道【道標】",
        "住所": "東山区清閑寺下山町(清水寺内)",
        "": ""
      },
      "geometry": {
        "type": "Point",
        "coordinates": [
          135.47072,
          34.59349
        ]
      }
    },
    {
      "type": "Feature",
      "properties": {
        "﻿番号": "HI179",
        "title": "清水寺測点標石",
        "住所": "東山区清水一丁目(清水寺内)",
        "": ""
      },
      "geometry": {
        "type": "Point",
        "coordinates": [
          135.46598,
          34.59437
        ]
      }
    },
    {
      "type": "Feature",
      "properties": {
        "﻿番号": "HI180",
        "title": "京都霊山護国神社近道【道標】",
        "住所": "東山区清水二丁目",
        "": ""
      },
      "geometry": {
        "type": "Point",
        "coordinates": [
          135.46509,
          34.59464
        ]
      }
    },
    {
      "type": "Feature",
      "properties": {
        "﻿番号": "HI181",
        "title": "清水寺・清閑寺方面他【道標】",
        "住所": "東山区清水二丁目",
        "": ""
      },
      "geometry": {
        "type": "Point",
        "coordinates": [
          135.46509,
          34.59464
        ]
      }
    },
    {
      "type": "Feature",
      "properties": {
        "﻿番号": "HI182",
        "title": "忠僕重助碑",
        "住所": "東山区清水一丁目(清水寺内)",
        "": ""
      },
      "geometry": {
        "type": "Point",
        "coordinates": [
          135.47033,
          34.5943
        ]
      }
    },
    {
      "type": "Feature",
      "properties": {
        "﻿番号": "HI183",
        "title": "青蓮院・都ホテル【道標】",
        "住所": "東山区粟田口粟田山北町",
        "": ""
      },
      "geometry": {
        "type": "Point",
        "coordinates": [
          135.47128,
          35.00236
        ]
      }
    },
    {
      "type": "Feature",
      "properties": {
        "﻿番号": "HI184",
        "title": "将軍塚・円山公園【道標】",
        "住所": "東山区粟田口高台寺山町",
        "": ""
      },
      "geometry": {
        "type": "Point",
        "coordinates": [
          135.47106,
          35.00036
        ]
      }
    },
    {
      "type": "Feature",
      "properties": {
        "﻿番号": "HI185",
        "title": "蛍が窟・知恩院【道標】",
        "住所": "東山区粟田口粟田山南町",
        "": ""
      },
      "geometry": {
        "type": "Point",
        "coordinates": [
          135.47057,
          35.00101
        ]
      }
    },
    {
      "type": "Feature",
      "properties": {
        "﻿番号": "HI186",
        "title": "将軍塚道【道標】",
        "住所": "東山区円山町",
        "": ""
      },
      "geometry": {
        "type": "Point",
        "coordinates": [
          135.47023,
          35.00122
        ]
      }
    },
    {
      "type": "Feature",
      "properties": {
        "﻿番号": "HI187",
        "title": "淡海槐堂先生旌褒碑",
        "住所": "東山区清閑寺霊山町(京都霊山護国神社内)",
        "": ""
      },
      "geometry": {
        "type": "Point",
        "coordinates": [
          135.46599,
          34.59592
        ]
      }
    },
    {
      "type": "Feature",
      "properties": {
        "﻿番号": "HI188",
        "title": "玉松操碑",
        "住所": "東山区清閑寺霊山町(京都霊山護国神社内)",
        "": ""
      },
      "geometry": {
        "type": "Point",
        "coordinates": [
          135.47007,
          34.59593
        ]
      }
    },
    {
      "type": "Feature",
      "properties": {
        "﻿番号": "HI189",
        "title": "清水寺・山県有朋紀念樹・高台寺【道標】",
        "住所": "東山区粟田口高台寺山町",
        "": ""
      },
      "geometry": {
        "type": "Point",
        "coordinates": [
          135.47199,
          34.59584
        ]
      }
    },
    {
      "type": "Feature",
      "properties": {
        "﻿番号": "HI190",
        "title": "山県有朋紀念樹・高台寺・大日如来・将軍塚等【道標】",
        "住所": "東山区粟田口高台寺山町",
        "": ""
      },
      "geometry": {
        "type": "Point",
        "coordinates": [
          135.47157,
          34.59506
        ]
      }
    },
    {
      "type": "Feature",
      "properties": {
        "﻿番号": "HI191",
        "title": "二天門碑",
        "住所": "東山区五条橋東六丁目(大谷本廟内)",
        "": ""
      },
      "geometry": {
        "type": "Point",
        "coordinates": [
          135.46406,
          34.59374
        ]
      }
    },
    {
      "type": "Feature",
      "properties": {
        "﻿番号": "HI192",
        "title": "伊藤公の詩碑此山上にあり【道標】",
        "住所": "東山区清閑寺霊山町(京都霊山護国神社内)",
        "": ""
      },
      "geometry": {
        "type": "Point",
        "coordinates": [
          135.47019,
          34.59587
        ]
      }
    },
    {
      "type": "Feature",
      "properties": {
        "﻿番号": "HI193",
        "title": "元三大師【道標】",
        "住所": "東山区粟田口三条坊町",
        "": ""
      },
      "geometry": {
        "type": "Point",
        "coordinates": [
          135.47025,
          35.00306
        ]
      }
    },
    {
      "type": "Feature",
      "properties": {
        "﻿番号": "HI194",
        "title": "琵琶湖疏水工事殉職者碑",
        "住所": "東山区東小物座町",
        "": ""
      },
      "geometry": {
        "type": "Point",
        "coordinates": [
          135.47262,
          35.00304
        ]
      }
    },
    {
      "type": "Feature",
      "properties": {
        "﻿番号": "HI195",
        "title": "博労尼講詰所趾碑",
        "住所": "東山区五条橋東六丁目(大谷本廟内)",
        "": ""
      },
      "geometry": {
        "type": "Point",
        "coordinates": [
          135.46385,
          34.59377
        ]
      }
    },
    {
      "type": "Feature",
      "properties": {
        "﻿番号": "HU001",
        "title": "戊辰戦役東軍戦死者埋骨所",
        "住所": "伏見区榎町(悟真寺内)",
        "": ""
      },
      "geometry": {
        "type": "Point",
        "coordinates": [
          135.45317,
          34.56331
        ]
      }
    },
    {
      "type": "Feature",
      "properties": {
        "﻿番号": "HU002",
        "title": "戊辰戦役東軍戦死者碑",
        "住所": "伏見区榎町(悟真寺内)",
        "": ""
      },
      "geometry": {
        "type": "Point",
        "coordinates": [
          135.45316,
          34.56334
        ]
      }
    },
    {
      "type": "Feature",
      "properties": {
        "﻿番号": "HU003",
        "title": "魚市場遺跡碑",
        "住所": "伏見区横大路草津町(羽束師橋東詰南)",
        "": ""
      },
      "geometry": {
        "type": "Point",
        "coordinates": [
          135.44045,
          34.55437
        ]
      }
    },
    {
      "type": "Feature",
      "properties": {
        "﻿番号": "HU004",
        "title": "戊辰役東軍戦死者埋骨地",
        "住所": "伏見区横大路富ノ森町",
        "": ""
      },
      "geometry": {
        "type": "Point",
        "coordinates": [
          135.43244,
          34.54515
        ]
      }
    },
    {
      "type": "Feature",
      "properties": {
        "﻿番号": "HU005",
        "title": "戊辰東軍戦死碑",
        "住所": "伏見区下鳥羽三町(法伝寺内)",
        "": ""
      },
      "geometry": {
        "type": "Point",
        "coordinates": [
          135.44275,
          34.56068
        ]
      }
    },
    {
      "type": "Feature",
      "properties": {
        "﻿番号": "HU006",
        "title": "戊辰役東軍戦死者埋骨地",
        "住所": "伏見区下鳥羽東柳長町(悲願寺共同墓地内)",
        "": ""
      },
      "geometry": {
        "type": "Point",
        "coordinates": [
          135.44381,
          34.56156
        ]
      }
    },
    {
      "type": "Feature",
      "properties": {
        "﻿番号": "HU007",
        "title": "明治維新伏見の戦跡",
        "住所": "伏見区御香宮門前町(御香宮境内)",
        "": ""
      },
      "geometry": {
        "type": "Point",
        "coordinates": [
          135.46032,
          34.56033
        ]
      }
    },
    {
      "type": "Feature",
      "properties": {
        "﻿番号": "HU008",
        "title": "明智薮",
        "住所": "伏見区小栗栖小坂町",
        "": ""
      },
      "geometry": {
        "type": "Point",
        "coordinates": [
          135.48079,
          34.56498
        ]
      }
    },
    {
      "type": "Feature",
      "properties": {
        "﻿番号": "HU009",
        "title": "法琳寺跡",
        "住所": "伏見区小栗栖北谷町",
        "": ""
      },
      "geometry": {
        "type": "Point",
        "coordinates": [
          135.48148,
          34.57002
        ]
      }
    },
    {
      "type": "Feature",
      "properties": {
        "﻿番号": "HU010",
        "title": "深草弥生遺跡",
        "住所": "伏見区深草西浦町五丁目(ＮＴＴ深草別館前)",
        "": ""
      },
      "geometry": {
        "type": "Point",
        "coordinates": [
          135.46029,
          34.57343
        ]
      }
    },
    {
      "type": "Feature",
      "properties": {
        "﻿番号": "HU011",
        "title": "京都歩兵聯隊跡",
        "住所": "伏見区深草鳥居崎町(藤森神社内)",
        "": ""
      },
      "geometry": {
        "type": "Point",
        "coordinates": [
          135.46173,
          34.57056
        ]
      }
    },
    {
      "type": "Feature",
      "properties": {
        "﻿番号": "HU012",
        "title": "道元禅師入越足跡夢街道慕古の旅発願碑",
        "住所": "伏見区西大文字町(宝福寺内)",
        "": ""
      },
      "geometry": {
        "type": "Point",
        "coordinates": [
          135.45167,
          34.56042
        ]
      }
    },
    {
      "type": "Feature",
      "properties": {
        "﻿番号": "HU013",
        "title": "石田杜",
        "住所": "伏見区石田森東町(天穂日命神社参道)",
        "": ""
      },
      "geometry": {
        "type": "Point",
        "coordinates": [
          135.481,
          34.56224
        ]
      }
    },
    {
      "type": "Feature",
      "properties": {
        "﻿番号": "HU016",
        "title": "醍醐寺境内栢杜遺跡",
        "住所": "伏見区醍醐柏森町",
        "": ""
      },
      "geometry": {
        "type": "Point",
        "coordinates": [
          135.49022,
          34.56317
        ]
      }
    },
    {
      "type": "Feature",
      "properties": {
        "﻿番号": "HU017",
        "title": "頼政道跡",
        "住所": "伏見区醍醐伽藍町(長尾天満宮内)",
        "": ""
      },
      "geometry": {
        "type": "Point",
        "coordinates": [
          135.49194,
          34.57069
        ]
      }
    },
    {
      "type": "Feature",
      "properties": {
        "﻿番号": "HU018",
        "title": "太田垣蓮月仮寓跡",
        "住所": "伏見区醍醐落保町",
        "": ""
      },
      "geometry": {
        "type": "Point",
        "coordinates": [
          135.49054,
          34.56566
        ]
      }
    },
    {
      "type": "Feature",
      "properties": {
        "﻿番号": "HU019",
        "title": "式内真幡寸神社跡",
        "住所": "伏見区竹田真幡木町(若宮八幡宮前)",
        "": ""
      },
      "geometry": {
        "type": "Point",
        "coordinates": [
          135.45108,
          34.572
        ]
      }
    },
    {
      "type": "Feature",
      "properties": {
        "﻿番号": "HU020",
        "title": "明治天皇御小休所安楽寿院",
        "住所": "伏見区竹田中内畑町(安楽寿院内)",
        "": ""
      },
      "geometry": {
        "type": "Point",
        "coordinates": [
          135.45166,
          34.57081
        ]
      }
    },
    {
      "type": "Feature",
      "properties": {
        "﻿番号": "HU021",
        "title": "鳥羽離宮田中殿跡",
        "住所": "伏見区竹田田中殿町(田中殿公園内)",
        "": ""
      },
      "geometry": {
        "type": "Point",
        "coordinates": [
          135.44487,
          34.57016
        ]
      }
    },
    {
      "type": "Feature",
      "properties": {
        "﻿番号": "HU023",
        "title": "西行寺址",
        "住所": "伏見区竹田内畑町(地蔵堂前)",
        "": ""
      },
      "geometry": {
        "type": "Point",
        "coordinates": [
          135.45048,
          34.57109
        ]
      }
    },
    {
      "type": "Feature",
      "properties": {
        "﻿番号": "HU024",
        "title": "鳥羽伏見戦跡碑",
        "住所": "伏見区中島御所ノ内町(鳥羽離宮跡公園内)",
        "": ""
      },
      "geometry": {
        "type": "Point",
        "coordinates": [
          135.44375,
          34.56597
        ]
      }
    },
    {
      "type": "Feature",
      "properties": {
        "﻿番号": "HU025",
        "title": "鳥羽伏見戦跡",
        "住所": "伏見区中島秋ノ山町(小枝橋東詰)",
        "": ""
      },
      "geometry": {
        "type": "Point",
        "coordinates": [
          135.44354,
          34.57019
        ]
      }
    },
    {
      "type": "Feature",
      "properties": {
        "﻿番号": "HU026",
        "title": "明治天皇行在所真幡寸神社",
        "住所": "伏見区中島鳥羽離宮町(城南宮内)",
        "": ""
      },
      "geometry": {
        "type": "Point",
        "coordinates": [
          135.4453,
          34.5701
        ]
      }
    },
    {
      "type": "Feature",
      "properties": {
        "﻿番号": "HU027",
        "title": "伏見城石垣",
        "住所": "伏見区桃山町伊庭(桃山東小学校内)",
        "": ""
      },
      "geometry": {
        "type": "Point",
        "coordinates": [
          135.47112,
          34.56084
        ]
      }
    },
    {
      "type": "Feature",
      "properties": {
        "﻿番号": "HU028",
        "title": "維新戦跡",
        "住所": "伏見区桃陵町(桃陵中学校内)",
        "": ""
      },
      "geometry": {
        "type": "Point",
        "coordinates": [
          135.44581,
          34.5542
        ]
      }
    },
    {
      "type": "Feature",
      "properties": {
        "﻿番号": "HU029",
        "title": "大石良雄遊興地よろづや",
        "住所": "伏見区撞木町",
        "": ""
      },
      "geometry": {
        "type": "Point",
        "coordinates": [
          135.45553,
          34.56457
        ]
      }
    },
    {
      "type": "Feature",
      "properties": {
        "﻿番号": "HU030",
        "title": "長明方丈石",
        "住所": "伏見区日野船尾",
        "": ""
      },
      "geometry": {
        "type": "Point",
        "coordinates": [
          135.49279,
          34.56013
        ]
      }
    },
    {
      "type": "Feature",
      "properties": {
        "﻿番号": "HU031",
        "title": "親鸞聖人ご誕生地",
        "住所": "伏見区日野西大道町(日野誕生院内)",
        "": ""
      },
      "geometry": {
        "type": "Point",
        "coordinates": [
          135.48561,
          34.56008
        ]
      }
    },
    {
      "type": "Feature",
      "properties": {
        "﻿番号": "HU032",
        "title": "戊辰役東軍戦死者埋骨地",
        "住所": "伏見区納所下野",
        "": ""
      },
      "geometry": {
        "type": "Point",
        "coordinates": [
          135.43431,
          34.54351
        ]
      }
    },
    {
      "type": "Feature",
      "properties": {
        "﻿番号": "HU033",
        "title": "唐人雁木旧趾",
        "住所": "伏見区納所町",
        "": ""
      },
      "geometry": {
        "type": "Point",
        "coordinates": [
          135.43059,
          34.54276
        ]
      }
    },
    {
      "type": "Feature",
      "properties": {
        "﻿番号": "HU034",
        "title": "戊辰役戦場址",
        "住所": "伏見区納所町(納所会館前)",
        "": ""
      },
      "geometry": {
        "type": "Point",
        "coordinates": [
          135.43089,
          34.54331
        ]
      }
    },
    {
      "type": "Feature",
      "properties": {
        "﻿番号": "HU035",
        "title": "淀小橋旧趾",
        "住所": "伏見区納所町八番",
        "": ""
      },
      "geometry": {
        "type": "Point",
        "coordinates": [
          135.43114,
          34.54279
        ]
      }
    },
    {
      "type": "Feature",
      "properties": {
        "﻿番号": "HU036",
        "title": "戊辰役東軍戦死者碑",
        "住所": "伏見区納所北城堀(妙教寺内)",
        "": ""
      },
      "geometry": {
        "type": "Point",
        "coordinates": [
          135.43081,
          34.54358
        ]
      }
    },
    {
      "type": "Feature",
      "properties": {
        "﻿番号": "HU037",
        "title": "我国に於ける電気鉄道事業発祥の地",
        "住所": "伏見区下油掛町",
        "": ""
      },
      "geometry": {
        "type": "Point",
        "coordinates": [
          135.45311,
          34.55524
        ]
      }
    },
    {
      "type": "Feature",
      "properties": {
        "﻿番号": "HU038",
        "title": "伏見奉行所跡",
        "住所": "伏見区西奉行町(桃陵団地内)",
        "": ""
      },
      "geometry": {
        "type": "Point",
        "coordinates": [
          135.45571,
          34.55518
        ]
      }
    },
    {
      "type": "Feature",
      "properties": {
        "﻿番号": "HU040",
        "title": "寺田屋",
        "住所": "伏見区南浜町",
        "": ""
      },
      "geometry": {
        "type": "Point",
        "coordinates": [
          135.45348,
          34.55489
        ]
      }
    },
    {
      "type": "Feature",
      "properties": {
        "﻿番号": "HU041",
        "title": "伏見銀座跡",
        "住所": "伏見区銀座町一丁目",
        "": ""
      },
      "geometry": {
        "type": "Point",
        "coordinates": [
          135.45504,
          34.55597
        ]
      }
    },
    {
      "type": "Feature",
      "properties": {
        "﻿番号": "HU042",
        "title": "戊辰役東軍戦死者埋骨地",
        "住所": "伏見区淀下津町(大専寺内)",
        "": ""
      },
      "geometry": {
        "type": "Point",
        "coordinates": [
          135.4313,
          34.54089
        ]
      }
    },
    {
      "type": "Feature",
      "properties": {
        "﻿番号": "HU043",
        "title": "戊辰役東軍戦死者碑",
        "住所": "伏見区淀新町(長円寺内)",
        "": ""
      },
      "geometry": {
        "type": "Point",
        "coordinates": [
          135.43057,
          34.53588
        ]
      }
    },
    {
      "type": "Feature",
      "properties": {
        "﻿番号": "HU044",
        "title": "戊辰役東軍戦死者埋骨地",
        "住所": "伏見区淀新町(東運寺内)",
        "": ""
      },
      "geometry": {
        "type": "Point",
        "coordinates": [
          135.43077,
          34.53574
        ]
      }
    },
    {
      "type": "Feature",
      "properties": {
        "﻿番号": "HU045",
        "title": "戊辰役東軍戦死者埋骨地",
        "住所": "伏見区淀新町(文相寺内)",
        "": ""
      },
      "geometry": {
        "type": "Point",
        "coordinates": [
          135.43106,
          34.54072
        ]
      }
    },
    {
      "type": "Feature",
      "properties": {
        "﻿番号": "HU046",
        "title": "天皇御駐輦趾",
        "住所": "伏見区淀池上町(明親小学校内)",
        "": ""
      },
      "geometry": {
        "type": "Point",
        "coordinates": [
          135.43161,
          34.54121
        ]
      }
    },
    {
      "type": "Feature",
      "properties": {
        "﻿番号": "HU047",
        "title": "淀川瀬水車旧趾",
        "住所": "伏見区淀本町",
        "": ""
      },
      "geometry": {
        "type": "Point",
        "coordinates": [
          135.42595,
          34.54205
        ]
      }
    },
    {
      "type": "Feature",
      "properties": {
        "﻿番号": "HU048",
        "title": "淀城址",
        "住所": "伏見区淀本町(淀城跡公園内)",
        "": ""
      },
      "geometry": {
        "type": "Point",
        "coordinates": [
          135.43016,
          34.54181
        ]
      }
    },
    {
      "type": "Feature",
      "properties": {
        "﻿番号": "HU049",
        "title": "明治天皇御駐蹕址",
        "住所": "伏見区淀本町(淀城跡公園内)",
        "": ""
      },
      "geometry": {
        "type": "Point",
        "coordinates": [
          135.43015,
          34.54195
        ]
      }
    },
    {
      "type": "Feature",
      "properties": {
        "﻿番号": "HU050",
        "title": "唐人雁木旧趾",
        "住所": "伏見区淀本町(淀城跡公園内)",
        "": ""
      },
      "geometry": {
        "type": "Point",
        "coordinates": [
          135.4305,
          34.5418
        ]
      }
    },
    {
      "type": "Feature",
      "properties": {
        "﻿番号": "HU051",
        "title": "撞木町廓碑",
        "住所": "伏見区橦木町",
        "": ""
      },
      "geometry": {
        "type": "Point",
        "coordinates": [
          135.45539,
          34.56452
        ]
      }
    },
    {
      "type": "Feature",
      "properties": {
        "﻿番号": "HU052",
        "title": "明治天皇御小休所旧伏見第二小学校",
        "住所": "伏見区下板橋町(伏見板橋小学校内)",
        "": ""
      },
      "geometry": {
        "type": "Point",
        "coordinates": [
          135.45395,
          34.56173
        ]
      }
    },
    {
      "type": "Feature",
      "properties": {
        "﻿番号": "HU053",
        "title": "伏見工兵第十六大隊跡",
        "住所": "伏見区西奉行町(桃陵団地入口)",
        "": ""
      },
      "geometry": {
        "type": "Point",
        "coordinates": [
          135.45569,
          34.55515
        ]
      }
    },
    {
      "type": "Feature",
      "properties": {
        "﻿番号": "HU055",
        "title": "愚庵終焉地",
        "住所": "伏見区桃山町泰長老",
        "": ""
      },
      "geometry": {
        "type": "Point",
        "coordinates": [
          135.46271,
          34.55499
        ]
      }
    },
    {
      "type": "Feature",
      "properties": {
        "﻿番号": "HU056",
        "title": "両替商旧跡",
        "住所": "伏見区両替町三丁目",
        "": ""
      },
      "geometry": {
        "type": "Point",
        "coordinates": [
          135.45499,
          34.5551
        ]
      }
    },
    {
      "type": "Feature",
      "properties": {
        "﻿番号": "HU057",
        "title": "明治天皇御駐輦所観月橋",
        "住所": "伏見区豊後橋町(観月橋北詰堤防上)",
        "": ""
      },
      "geometry": {
        "type": "Point",
        "coordinates": [
          135.46049,
          34.55403
        ]
      }
    },
    {
      "type": "Feature",
      "properties": {
        "﻿番号": "HU058",
        "title": "白河法皇・鳥羽法皇院政地",
        "住所": "伏見区竹田浄菩提院町",
        "": ""
      },
      "geometry": {
        "type": "Point",
        "coordinates": [
          135.45142,
          34.5708
        ]
      }
    },
    {
      "type": "Feature",
      "properties": {
        "﻿番号": "HU059",
        "title": "鳥羽伏見の戦勃発の地小枝橋",
        "住所": "伏見区中島御所ノ内町(鳥羽離宮跡公園内)",
        "": ""
      },
      "geometry": {
        "type": "Point",
        "coordinates": [
          135.44382,
          34.56596
        ]
      }
    },
    {
      "type": "Feature",
      "properties": {
        "﻿番号": "HU060",
        "title": "今出川菊亭右大臣鳥羽殿跡",
        "住所": "伏見区下鳥羽長田町(常高寺前)",
        "": ""
      },
      "geometry": {
        "type": "Point",
        "coordinates": [
          135.44357,
          34.5625
        ]
      }
    },
    {
      "type": "Feature",
      "properties": {
        "﻿番号": "HU061",
        "title": "鳥羽伏見の戦跡",
        "住所": "伏見区下鳥羽三町",
        "": ""
      },
      "geometry": {
        "type": "Point",
        "coordinates": [
          135.44258,
          34.56022
        ]
      }
    },
    {
      "type": "Feature",
      "properties": {
        "﻿番号": "HU062",
        "title": "円光大師御旧跡",
        "住所": "伏見区下鳥羽三町(一念寺前)",
        "": ""
      },
      "geometry": {
        "type": "Point",
        "coordinates": [
          135.44221,
          34.55571
        ]
      }
    },
    {
      "type": "Feature",
      "properties": {
        "﻿番号": "HU063",
        "title": "元政上人旧跡【道標】",
        "住所": "伏見区深草直違橋七丁目",
        "": ""
      },
      "geometry": {
        "type": "Point",
        "coordinates": [
          135.46161,
          34.57408
        ]
      }
    },
    {
      "type": "Feature",
      "properties": {
        "﻿番号": "HU064",
        "title": "一本松",
        "住所": "伏見区深草直違橋九丁目",
        "": ""
      },
      "geometry": {
        "type": "Point",
        "coordinates": [
          135.46161,
          34.57468
        ]
      }
    },
    {
      "type": "Feature",
      "properties": {
        "﻿番号": "HU065",
        "title": "山王権現大宮社の跡",
        "住所": "伏見区竹田桶ノ井町(竹田小学校内)",
        "": ""
      },
      "geometry": {
        "type": "Point",
        "coordinates": [
          135.45252,
          34.57162
        ]
      }
    },
    {
      "type": "Feature",
      "properties": {
        "﻿番号": "HU066",
        "title": "蓮如上人由緒地",
        "住所": "伏見区深草瓦町(善福寺前)",
        "": ""
      },
      "geometry": {
        "type": "Point",
        "coordinates": [
          135.46424,
          34.57295
        ]
      }
    },
    {
      "type": "Feature",
      "properties": {
        "﻿番号": "HU067",
        "title": "日観亭旧跡",
        "住所": "伏見区深草真宗院山町(真宗院墓地内)",
        "": ""
      },
      "geometry": {
        "type": "Point",
        "coordinates": [
          135.46421,
          34.5737
        ]
      }
    },
    {
      "type": "Feature",
      "properties": {
        "﻿番号": "HU068",
        "title": "元政上人旧跡",
        "住所": "伏見区深草坊町(瑞光寺内)",
        "": ""
      },
      "geometry": {
        "type": "Point",
        "coordinates": [
          135.46278,
          34.57426
        ]
      }
    },
    {
      "type": "Feature",
      "properties": {
        "﻿番号": "HU069",
        "title": "了性院・本久院・深信院廃寺跡",
        "住所": "伏見区深草宝塔寺山町(宝塔寺内)",
        "": ""
      },
      "geometry": {
        "type": "Point",
        "coordinates": [
          135.46295,
          34.57456
        ]
      }
    },
    {
      "type": "Feature",
      "properties": {
        "﻿番号": "HU070",
        "title": "騎兵第二十聯隊跡",
        "住所": "伏見区深草西伊達町",
        "": ""
      },
      "geometry": {
        "type": "Point",
        "coordinates": [
          135.46276,
          34.57231
        ]
      }
    },
    {
      "type": "Feature",
      "properties": {
        "﻿番号": "HU071",
        "title": "京都陸軍病院跡",
        "住所": "伏見区深草向畑町(京都医療センター内)",
        "": ""
      },
      "geometry": {
        "type": "Point",
        "coordinates": [
          135.46161,
          34.56167
        ]
      }
    },
    {
      "type": "Feature",
      "properties": {
        "﻿番号": "HU072",
        "title": "親鸞・玉日姫・九条関白旧蹟",
        "住所": "伏見区深草直違橋二丁目(西岸寺内)",
        "": ""
      },
      "geometry": {
        "type": "Point",
        "coordinates": [
          135.4615,
          34.57161
        ]
      }
    },
    {
      "type": "Feature",
      "properties": {
        "﻿番号": "HU073",
        "title": "冠石",
        "住所": "伏見区竹田浄菩提院町(鳥羽天皇安楽寿院陵南)",
        "": ""
      },
      "geometry": {
        "type": "Point",
        "coordinates": [
          135.45141,
          34.57085
        ]
      }
    },
    {
      "type": "Feature",
      "properties": {
        "﻿番号": "HU074",
        "title": "戊辰役東軍戦死者埋骨地",
        "住所": "伏見区淀新町(長円寺内)",
        "": ""
      },
      "geometry": {
        "type": "Point",
        "coordinates": [
          135.43052,
          34.53589
        ]
      }
    },
    {
      "type": "Feature",
      "properties": {
        "﻿番号": "HU075",
        "title": "戊辰役東軍戦死者埋骨地",
        "住所": "伏見区淀新町(長円寺内)",
        "": ""
      },
      "geometry": {
        "type": "Point",
        "coordinates": [
          135.42045,
          34.53571
        ]
      }
    },
    {
      "type": "Feature",
      "properties": {
        "﻿番号": "HU076",
        "title": "淀小橋旧趾",
        "住所": "伏見区淀本町(淀城跡公園内)",
        "": ""
      },
      "geometry": {
        "type": "Point",
        "coordinates": [
          135.4305,
          34.5418
        ]
      }
    },
    {
      "type": "Feature",
      "properties": {
        "﻿番号": "HU077",
        "title": "京道【道標】",
        "住所": "伏見区表町(伏見土木事務所内)",
        "": ""
      },
      "geometry": {
        "type": "Point",
        "coordinates": [
          135.45298,
          34.55459
        ]
      }
    },
    {
      "type": "Feature",
      "properties": {
        "﻿番号": "HU078",
        "title": "京橋舟乗場【道標】",
        "住所": "伏見区表町(伏見土木事務所内)",
        "": ""
      },
      "geometry": {
        "type": "Point",
        "coordinates": [
          135.45309,
          34.5546
        ]
      }
    },
    {
      "type": "Feature",
      "properties": {
        "﻿番号": "HU079",
        "title": "京大仏街道・大津道【道標】",
        "住所": "伏見区下板橋町(伏見板橋小学校内)",
        "": ""
      },
      "geometry": {
        "type": "Point",
        "coordinates": [
          135.45397,
          34.56174
        ]
      }
    },
    {
      "type": "Feature",
      "properties": {
        "﻿番号": "HU080",
        "title": "舟乗場／京都・大津道【道標】",
        "住所": "伏見区下板橋町(伏見中学校内)",
        "": ""
      },
      "geometry": {
        "type": "Point",
        "coordinates": [
          135.45376,
          34.5617
        ]
      }
    },
    {
      "type": "Feature",
      "properties": {
        "﻿番号": "HU081",
        "title": "舟乗場／京・大津道【道標】",
        "住所": "伏見区下板橋町(伏見青年の家前)",
        "": ""
      },
      "geometry": {
        "type": "Point",
        "coordinates": [
          135.45394,
          34.56154
        ]
      }
    },
    {
      "type": "Feature",
      "properties": {
        "﻿番号": "HU082",
        "title": "大阪舟乗場【道標】",
        "住所": "伏見区丹後町(伏見南浜小学校内)",
        "": ""
      },
      "geometry": {
        "type": "Point",
        "coordinates": [
          135.45453,
          34.55474
        ]
      }
    },
    {
      "type": "Feature",
      "properties": {
        "﻿番号": "HU083",
        "title": "京橋舟乗場／大津道【道標】",
        "住所": "伏見区桃陵町(桃陵中学校内)",
        "": ""
      },
      "geometry": {
        "type": "Point",
        "coordinates": [
          135.45581,
          34.55421
        ]
      }
    },
    {
      "type": "Feature",
      "properties": {
        "﻿番号": "HU084",
        "title": "京街道／大和街道【道標】",
        "住所": "伏見区豊後橋町(京阪観月橋駅前)",
        "": ""
      },
      "geometry": {
        "type": "Point",
        "coordinates": [
          135.46051,
          34.554
        ]
      }
    },
    {
      "type": "Feature",
      "properties": {
        "﻿番号": "HU085",
        "title": "大坂舟乗場／京・大津道【道標】",
        "住所": "伏見区御香宮門前町(御香宮内)",
        "": ""
      },
      "geometry": {
        "type": "Point",
        "coordinates": [
          135.46033,
          34.56009
        ]
      }
    },
    {
      "type": "Feature",
      "properties": {
        "﻿番号": "HU086",
        "title": "大岩・小栗栖道【道標】",
        "住所": "伏見区表町(伏見土木事務所内)",
        "": ""
      },
      "geometry": {
        "type": "Point",
        "coordinates": [
          135.4631,
          34.55461
        ]
      }
    },
    {
      "type": "Feature",
      "properties": {
        "﻿番号": "HU087",
        "title": "桃山御陵・乃木神社十五町【道標】",
        "住所": "伏見区南新地(京阪中書島駅前)",
        "": ""
      },
      "geometry": {
        "type": "Point",
        "coordinates": [
          135.45351,
          34.55369
        ]
      }
    },
    {
      "type": "Feature",
      "properties": {
        "﻿番号": "HU089",
        "title": "子安地蔵尊【道標】",
        "住所": "伏見区桃山羽柴長吉西町(聖恩寺前)",
        "": ""
      },
      "geometry": {
        "type": "Point",
        "coordinates": [
          135.45546,
          34.56068
        ]
      }
    },
    {
      "type": "Feature",
      "properties": {
        "﻿番号": "HU090",
        "title": "桓武天皇御陵東五町【道標】",
        "住所": "伏見区桃山筒井伊賀西町(京阪丹波橋駅前)",
        "": ""
      },
      "geometry": {
        "type": "Point",
        "coordinates": [
          135.45559,
          34.56229
        ]
      }
    },
    {
      "type": "Feature",
      "properties": {
        "﻿番号": "HU091",
        "title": "大仏・知恩院・大谷道【道標】",
        "住所": "伏見区深草大亀谷西寺町(西福寺内)",
        "": ""
      },
      "geometry": {
        "type": "Point",
        "coordinates": [
          135.46289,
          34.56544
        ]
      }
    },
    {
      "type": "Feature",
      "properties": {
        "﻿番号": "HU092",
        "title": "舟乗場／京・大津道【道標】",
        "住所": "伏見区深草直違橋三丁目(深草小学校内)",
        "": ""
      },
      "geometry": {
        "type": "Point",
        "coordinates": [
          135.46174,
          34.57224
        ]
      }
    },
    {
      "type": "Feature",
      "properties": {
        "﻿番号": "HU093",
        "title": "京道／大坂舟乗場【道標】",
        "住所": "伏見区深草直違橋三丁目(深草小学校内)",
        "": ""
      },
      "geometry": {
        "type": "Point",
        "coordinates": [
          135.46177,
          34.57222
        ]
      }
    },
    {
      "type": "Feature",
      "properties": {
        "﻿番号": "HU094",
        "title": "浄土深草流開祖円空上人旧跡真宗律院【道標】",
        "住所": "伏見区深草直違橋六丁目",
        "": ""
      },
      "geometry": {
        "type": "Point",
        "coordinates": [
          135.46163,
          34.57345
        ]
      }
    },
    {
      "type": "Feature",
      "properties": {
        "﻿番号": "HU095",
        "title": "ぬりこべ地蔵【道標】",
        "住所": "伏見区深草直違橋十丁目",
        "": ""
      },
      "geometry": {
        "type": "Point",
        "coordinates": [
          135.46161,
          34.57523
        ]
      }
    },